ID,NAME,SLUG,COUNTRY,COUNTRY-SLUG,LAT,LON
1Xh1vaSA4oBCdCqq79A9L0,"Texel / Paal 9, Netherlands",paal-9-texel-netherlands,Netherlands,netherlands,53.0216,4.7102
BPLh9jO3KPURk1sCta885,Henrykap,henrykap,Barbados,barbados,31.5013,-9.7633
3ElDq7BxBZbU8UyTM7HLCj,"Pamilican Island, Philippines",pamilican-island-philippines,Philippines,philippines,9.493259,123.924155
4OkmY4sLFMIYE2OD7GJMvN,"Panglao / Dumaluan Beach, Philippines",panglao-dumaluan-beach-philippines,Philippines,philippines,9.554706,123.803121
458uBJuKddsARzorMc15t9,"Panglao / Doljo Beach, Philippines",panglao-doljo-beach-philippines,Philippines,philippines,9.588839,123.725385
5HWBjUOHqZmsEAVKjho4sZ,"Siquijior Island / San Juan, Philippines",siquijior-island-san-juan-philippines,Philippines,philippines,9.1605,123.4897
5aRGstbc4kr6cQHpcknp7F,"Bohol / Quinale Beach, Philippines",bohol-quinale-beach-philippines,Philippines,philippines,9.742487,124.576231
6lbVl2i8KZy03i10ovMfhM,"Canyon Estate, Egypt",canyon-estate-egypt,Egypt,egypt,28.5575,34.524
3wbn9cE3LTAcTr48pYtk8t,"Anse de Sables Bay, Saint Lucia",anse-de-sables-bay-saint-lucia,Saint Lucia,saint-lucia,13.7278,-60.9445
10Yp0rqhQ9aP8fwrr1pzfe,"Valentin Perla Blanca, Cuba",valentin-perla-blanca-cuba,Cuba,cuba,22.666,-78.9684
5jLPCbgCsTRkUtsuDqTgQZ,"Essaouira Bay, Morocco",essaouira-bay-morocco,Morocco,morocco,31.5013,-9.7633
4E05UpNEI22iHOOJKAjIjk,"Sal / Shark Bay, Cape Verde",sal-shark-bay-cape-verde,Cape Verde,cape-verde,16.6143,-22.8976
1xqYSWsTzbkRKg8FG4mN6c,"Bohol / Seaside Beach Park, Philippines",bohol-seaside-beach-park-philippines,Philippines,philippines,9.603641,124.152193
7kZlcOKB1gUGmL75YHulj,"Krym / Mejvodnoe, Russia",krym-mejvodnoe-russia,Russia,russia,45.5566,32.8307
2pVxmY4TkLV6mjHjpfPkbO,"Panglao / Libaong Beach, Philippines",panglao-libaong-beach-philippines,Philippines,philippines,9.565,123.812
nDNrIBHMMeR0tnBCQFVDB,"Santa Veronica, Colombia",santa-veronica-colombia,Colombia,colombia,10.872806,-75.100144
17u75fpc1TT7hbYwt5F6DJ,"St. Croix / Great Pond Bay, Virgin Islands (USA)",st-croix-great-pond-bay-virgin-islands-usa,Virgin Islands (USA),virgin-islands-usa,17.723292,-64.646094
3n1QzkeXHBbOMT3IJqezjt,"Guan-Yin, Taiwan",guan-yin-taiwan,Taiwan,taiwan,25.047,121.076
5fVxj6w6VMwPQUu8J5931r,"Stuart South Causeway Bridge, Florida (USA)",stuart-south-causeway-bridge-florida-usa,Florida (USA),florida-usa,27.2085,-80.1891
69X63kFr10KJqLqlV8z201,"Columbia River / Walton Beach, Oregon (USA)",columbia-river-walton-beach-oregon-usa,Oregon (USA),oregon-usa,45.7311,-122.7668
6VdyxF3v2bcSAFoscqcGa,"La Boca, Chile",la-boca-chile,Chile,chile,-33.9061,-71.8331
QUwh0VZ6RpO6bOWV5sgWC,"Ocean Park, Puerto Rico",ocean-park-puerto-rico,Puerto Rico,puerto-rico,18.4547,-66.0558
6X7RvIZnycgwzFN5YZpwN1,"Izola, Slovenia",izola-slovenia,Slovenia,slovenia,45.5418,13.6577
3hAnC4yrBB2eneyofe7MAq,"Ponte di Ferro, Salerno, Italy",ponte-di-ferro-salerno-italy,Italy,italy,40.4271,14.9818
EnyeXHUIOUDgtOT6VMe4H,"Steccato, Italy",steccato-italy,Italy,italy,38.9337,16.926
b3xax82jzMKIslPsUWqgx,"Sardinia / Le Saline, Sassari, Italy",sardinia-le-saline-sassari-italy,Italy,italy,40.9039,8.2378
kE7XQ0q6VYWzQlaXN9aF5,"Krym / Olenevka, Russia",krym-olenevka-russia,Russia,russia,45.3739999999999,32.5152
2NfaeNQyJFRQzRoUgSGGG6,"Isla Canela, Spain",isla-canela-spain,Spain,spain,37.1738,-7.3857
5nbp14lCTjcbaTDxP2BMCX,"Isla Cristina, Spain",isla-cristina-spain,Spain,spain,37.1904,-7.3227
7Ih8pDckjcHIc9uHBiFYOW,"La Antilla, Spain",la-antilla-spain,Spain,spain,37.2048,-7.2177
5Yuv2lTqKwsAVRvNDbW7TC,"Nueva Umbria, Spain",nueva-umbria-spain,Spain,spain,37.2065,-7.1737
51xBz0EdXLUNrUR3XZTBeo,"El Portil, Spain",el-portil-spain,Spain,spain,37.2087,-7.04899999999999
vyF3oWxa8mKWQC0KayppD,"Punta Umbria Playa, Spain",punta-umbria-playa-spain,Spain,spain,37.1759,-6.9651
60oANWSMhv58fHQDO6Vh4J,"Punta Umbria Bajos, Spain",punta-umbria-bajos-spain,Spain,spain,37.1739,-6.9328
MYnm58eOOqrlD7k7rXpOo,"Espigon de Huelva, Spain",espigon-de-huelva-spain,Spain,spain,37.1455,-6.8905
6gnczexAbDIe21syz2kAlJ,"Mazagon, Spain",mazagon-spain,Spain,spain,37.1105,-6.7706
2qW5VJ5j6aWvHfk0PLWqlv,"Matalascanas, Spain",matalascanas-spain,Spain,spain,37.0051,-6.5667
157dYggpClP43kqU3PchJD,"Sanlucar de Barrameda, Spain",sanlucar-de-barrameda-spain,Spain,spain,36.7797,-6.3669
2DaNNyad914547Jgne9caJ,"Chipiona, Spain",chipiona-spain,Spain,spain,36.7295,-6.4395
4Nhrf4Vdol2cW3vmSpnCUd,"La Ballena, Spain",la-ballena-spain,Spain,spain,36.6873,-6.4189
53n9UUKymdA4IHe6iPf0Db,"Punta Candor, Spain",punta-candor-spain,Spain,spain,36.6353,-6.3942
7HN7K5kodUNh2jabfbXVkM,"Buzo, Spain",buzo-spain,Spain,spain,36.5944,-6.2732
6tIKzeiKUGHJEEToucIAdS,"Valdelagrana, Spain",valdelagrana-spain,Spain,spain,36.5612,-6.2241
7LSuFL7zLwvJepSUNusejO,"Off-shore, Spain",off-shore-spain,Spain,spain,36.525,-6.2339
GvB0MRYZzDuPtS5boEwix,"Cortadura, Spain",cortadura-spain,Spain,spain,36.4634,-6.2545
1yjgBUvR4U9Q8X1JpjDOgG,"Victoria, Spain",victoria-spain,Spain,spain,36.4917,-6.2698
4G2yVWi2mnVTEMPb4bwA5I,"Camposoto, Spain",camposoto-spain,Spain,spain,36.4288,-6.2318
4T2c3ePDw7hLqgwMw2ym6m,"Sancti Petri, Spain",sancti-petri-spain,Spain,spain,36.3879,-6.2075
26Ez0qKD8sRoGTRNugdlrb,"La Barrosa, Spain",la-barrosa-spain,Spain,spain,36.3711,-6.185
5fZGLH1RLYqo1m3u6mg1EX,"Conil, Spain",conil-spain,Spain,spain,36.2778,-6.096
2cyCMoE2MimKYK1zEhISxq,"El Palmar, Spain",el-palmar-spain,Spain,spain,36.2329,-6.0721
pteJutmahkW7tjscWx8e4,"Los Canos de Meca, Spain",los-canos-de-meca-spain,Spain,spain,36.1868,-6.0248
1revUESSy9HAcXqa5NZjKy,"Barbate, Spain",barbate-spain,Spain,spain,36.1863,-5.9191
1P87wM2YWcDbwvthiVjOVu,"Benavides, Spain",benavides-spain,Spain,spain,36.0597,-5.7131
6eClGcYtA59p7uQ0XQGo1E,"Punta Paloma, Spain",punta-paloma-spain,Spain,spain,36.0681,-5.693
4dhlclmxAyY30bc6rqTFcd,"Tangana, Spain",tangana-spain,Spain,spain,36.0664,-5.6848
7yNKiPh7Edjw9ARw2bmihY,"Valdevaqueros, Spain",valdevaqueros-spain,Spain,spain,36.0651,-5.6825
7E9mNnQUYYH4HN0JyT5zwu,"Dos Mares, Spain",dos-mares-spain,Spain,spain,36.0499,-5.646
69krNBgMDRnWKQ4BA87KPz,"Los Lances, Spain",los-lances-spain,Spain,spain,36.0441,-5.6381
7vflxBQmPyxovM6x02IVNs,"Rio Jara, Spain",rio-jara-spain,Spain,spain,36.0323,-5.6258
3jV90vfDLgxsmjRFx6usWm,"La Jaima, Spain",la-jaima-spain,Spain,spain,36.0237,-5.6184
3jN8wUImM1U9XJ0ISMEfwa,"Tarifa, Spain",tarifa-spain,Spain,spain,36.0135,-5.6116
54dZKn279hjY2Rp8wGAbST,"Playa Chica, Spain",playa-chica-tarifa-spain,Spain,spain,36.0084,-5.6065
IZBQbaDy3TcUdLE67R8JI,"Arte Vida, Spain",arte-vida-spain,Spain,spain,36.0516,-5.6488
7itrDDOhedFb95emLZHv8r,"Le Diamant, Martinique",le-diamant-martinique,Martinique,martinique,14.4775,-61.0319
2Z4AZOKs4deWQm6rXzLlsq,"Dune Blanche / White Dune, Dakhla, Morocco",dakhla-dune-blanche-white-dune-morocco,Morocco,morocco,23.814072856068915,-15.747067407226565
RkilrFB9WMEqcLS3TNgEg,"L'Ile de Kerner, France",l-ile-de-kerner-france,France,france,47.7022,-3.3128
6tvc23NhnbR2m4ti3mTdZo,"Luc-sur-Mer, France",luc-sur-mer-france,France,france,49.3204,-0.354
1fcihEMku71B9RdiaFJoiY,"Yallingup, Australia",yallingup-australia,Australia,australia,-33.6333,115.0283
1y2uf4XlfLw1cDOP3Ihnay,"Pengo's, Australia",pengo-s-australia,Australia,australia,-32.3051,115.7008
4w3Y18UKBLs3rOFANnhyne,"Masig Island, Australia",masig-island-australia,Australia,australia,-9.7511,143.4103
4EH0FMa6GECaiC0ARIGzzZ,"Lizard Island / Mangrove Beach, Australia",lizard-island-mangrove-beach-australia,Australia,australia,-14.6794,145.4611
ZxwqvtNMXHf8NuC7yxPUb,"Eagle Island, Australia",eagle-island-australia,Australia,australia,-14.6972,145.3776
6vt6uHjh52qHoBeSE6ebsl,"Annan River Mouth, Australia",annan-river-mouth-australia,Australia,australia,-15.5278,145.272
xrbPofEITVcveIv9hEQWY,"Tasmania / Bluff Beach, Australia",tasmania-bluff-beach-australia,Australia,australia,-40.9988,144.6307
WJwPgAontGxc5yLNrnNPn,"Caves Point, Australia",caves-point-australia,Australia,australia,-33.0987,151.6576
sAsZg5q3qm0Zyau91sPbL,"Stockton Beach, Australia",stockton-beach-australia,Australia,australia,-32.8756,151.8111
QYNZLU07ImfGutkf17rZQ,"Long Beach, Australia",long-beach-australia,Australia,australia,-37.1336,139.796
qdyip4QUybHK42ZFj7QOu,"Woody Point, Australia",woody-point-australia,Australia,australia,-27.2605,153.1025
pcZT6EMmSukkELQxKoRfC,"Sunset Beach, Australia",sunset-beach-australia,Australia,australia,-28.726,114.6197
oQtBULHZrEuIJVcmrkJhJ,"Foots Safety Beach, Australia",foots-safety-beach-australia,Australia,australia,-38.5302,145.3708
m8M7F3uq32DhVu84EgExn,"Yorkeys Knob, Australia",yorkeys-knob-australia,Australia,australia,-16.815,145.7309
m7bZD2vpHnQoa1t5RpMqx,"Jervis Bay / Moona Moona Creek, Australia",jervis-bay-moona-moona-creek-australia,Australia,australia,-35.0509,150.6772
kTInW4tXUVADBmYyaNLkD,"Waitpinga, Australia",waitpinga-australia,Australia,australia,-35.6343,138.4977
J8M07y0uRAflQRbbwqIoC,"Bells Beach, Australia",bells-beach-australia,Australia,australia,-38.373,144.277
hPAJF7Vl9IaTBQ9ZAsimn,"Mills Surf Beach, Australia",mills-surf-beach-australia,Australia,australia,-38.3922,142.232
hLnXMZ00U1snDvNE2YPkH,"Short Point Beach, Australia",short-point-beach-australia,Australia,australia,-36.8798,149.9292
G1PnimKykxLeZjTDjqrAY,"Peaceful Bay, Australia",peaceful-bay-australia,Australia,australia,-35.0377,116.9331
FAEyo90asuGNuZYGPS52a,"Wollumboula Lake, Australia",wollumboula-lake-australia,Australia,australia,-34.9418,150.7768
eqXNsUbPXc9xrPhwSOrSD,"Point Danger, Australia",point-danger-australia,Australia,australia,-38.34,144.3275
eHQvmpYLyOMYKFIyhtqPL,"South Beach, Australia",south-beach-australia,Australia,australia,-38.3846,142.2436
cdGVbvqzxOzkAqSMFDxjA,"Hervey Bay / Urangan Pier, Australia",hervey-bay-urangan-pier-australia,Australia,australia,-25.2834,152.9041
B7hmj0UHxwk96oxznmZN8,"Kangaroo Island / Snelling Beach, Australia",kangaroo-island-snelling-beach-australia,Australia,australia,-35.6674,137.0725
aZ41zPpM6b2ALllZuTH4Q,"Kurrimine Beach, Australia",kurrimine-beach-australia,Australia,australia,-17.7782,146.1064
aSQ9N3UwaGfXVepVcw3za,"Brighton Kitebeach, Australia",brighton-kitebeach-australia,Australia,australia,-27.2928,153.065
An0NBzXKZwNslO7V0nuU4,"Lord Howe Island / Salmon Beach, Australia",lord-howe-island-salmon-beach-australia,Australia,australia,-31.5558,159.0762
7zfQV1QourN8sNSyeb4Xp1,"Ross River Mouth, Australia",ross-river-mouth-australia,Australia,australia,-19.2659,146.8353
7vjUcZS00uSPtYjrrRNErC,"Loders Creek, Australia",loders-creek-australia,Australia,australia,-27.9532,153.4099
7uR6t7EgUBCWzN0NQ7DfxT,"Flat Top, Australia",flat-top-australia,Australia,australia,-30.1311,153.2029
7uOdhYAJd30rgCDe94Sj9j,"Swan River / Pelican Point, Australia",swan-river-pelican-point-australia,Australia,australia,-31.9874,115.8198
7sn5NCjicH0sJEFsx6Y7hY,"Bribie Island / Skirmish Point, Australia",bribie-island-skirmish-point-australia,Australia,australia,-27.0874,153.2067
7mERHJ095VDEgvOSIxo6YX,"Wedge Island, Australia",wedge-island-australia,Australia,australia,-30.8236,115.1905
7LiOZFeJlOCWITfvjH0Nqh,"Tasmania / Marion Bay, Australia",tasmania-marion-bay-australia,Australia,australia,-42.8204,147.8702
7JVdOsDn3LG7QGOwQUthu7,"Manypeaks, Australia",manypeaks-australia,Australia,australia,-34.9382,118.1796
7j89shSgQ4TSlltwKk3fVR,"Merimbula, Australia",merimbula-australia,Australia,australia,-36.8927,149.9291
7HmzJ0kWOwyAzUWnttSDx3,"Lord Howe Island / Lagoon Beach, Australia",lord-howe-island-lagoon-beach-australia,Australia,australia,-31.5307,159.0668
7GZbAyZZwennL5VHCo1E2y,"Middle Rock, Australia",middle-rock-australia,Australia,australia,-31.5648,152.8508
7f3bhJsjM1ICglEdpqNIco,"Lancelin Island, Australia",lancelin-island-australia,Australia,australia,-31.0295,115.3247
7emzqb0yxwjUfRtvzyE4z2,"Hangover Bay, Australia",hangover-bay-australia,Australia,australia,-30.5929,115.1038
7Do4BkAVmO3RrkgE6UlwYv,"Denham Lookout, Australia",denham-lookout-australia,Australia,australia,-25.9493,113.5592
7bP3YgruLBpXmPkf8Jt4TB,"Kingscliff, Australia",kingscliff-australia,Australia,australia,-28.2563,153.5805
7b4fe99AoAZUqUhYvQ3Fks,"Redgate, Australia",redgate-australia,Australia,australia,-34.0369,115.0007
79OdWbW1a9p1GRCQAeeTHk,"Gnarabup, Australia",gnarabup-australia,Australia,australia,-33.99,114.9912
76tsMNcCkmNDJ2Jh0FYAgy,"Dongara, Australia",dongara-australia,Australia,australia,-29.2525,114.9201
76ruQ5GbJIWVD5h3ncTydc,"Kings Beach, Australia",kings-beach-australia,Australia,australia,-20.0009999999999,148.265
74J3IgwpuHkpdYVXZvmNvA,"Hawks Nest, Australia",hawks-nest-australia,Australia,australia,-32.6875,152.1858
72tFdaCspy7f6lFyklUSlP,"Jimmys Beach, Australia",jimmys-beach-australia,Australia,australia,-32.6819,152.1582
6yaRkA38gynAwtn7JoUyJh,"Magnetic Island / Horseshoe Bay, Australia",magnetic-island-horseshoe-bay-australia,Australia,australia,-19.1178,146.8581
6tqmK2RYzx7uQBxokoEuGb,"Tasmania / Greens, Australia",tasmania-greens-australia,Australia,australia,-40.9088,144.6799
6R28jCt5rLbV5mAcAvYCLP,"Jurien Bay, Australia",jurien-bay-australia,Australia,australia,-30.3118,115.0233
6QXuzzSKZLR45CJiF1k0j5,"Back Beach, Australia",back-beach-australia,Australia,australia,-31.0329,115.3345
6QcicIkZJcl8sJxbfrzXEY,"Phillip Island / Woolamai Beach, Australia",phillip-island-woolamai-beach-australia,Australia,australia,-38.5439,145.3391
6KKHHsqXudSvrwwnks5dXQ,"Palm Cove, Australia",palm-cove-australia,Australia,australia,-16.7509999999999,145.6712
6ilyAEQmqEpeBIFfK8ufb8,"Sarina Beach, Australia",sarina-beach-australia,Australia,australia,-21.3844,149.3142
6HnHKvGdB2j8BIeQR9jxeq,"Queens Beach, Australia",queens-beach-australia,Australia,australia,-19.9845,148.2396
6HllhtZ96lhSP8tjgeQsLl,"Culburra Beach, Australia",culburra-beach-australia,Australia,australia,-34.9201,150.7661
6h1x3Rluh1npcGG02BTYil,"Jumpinpin, Australia",jumpinpin-australia,Australia,australia,-27.7428,153.4447
6D0K1ZiDmhiFJUoHrqf7Ab,"Valla Beach, Australia",valla-beach-australia,Australia,australia,-30.5966,153.0136
6amg8dzJL0NxNQHzhZahsc,"The Granites, Australia",the-granites-australia,Australia,australia,-36.681,139.8598
683gOs9uUZ7GNMuHq04PbL,"Main Beach Tannum Sand, Australia",main-beach-tannum-sand-australia,Australia,australia,-23.9469,151.3758
66YUdnVWnYL5Pe0iikwO55,"Shallow Inlet, Australia",shallow-inlet-australia,Australia,australia,-38.8525,146.16
66iSc0hpjDTXvhrRe9yShL,"Pambula Beach Rivermouth, Australia",pambula-beach-rivermouth-australia,Australia,australia,-36.9456,149.9147
60fdDzyOVnQKD42gr4fcNX,"Brighton Road, Australia",brighton-road-australia,Australia,australia,-31.8978,115.755
5xrUNmPf5H8u8Ry2NkfatA,"Tasmania / West Beach, Australia",tasmania-west-beach-australia,Australia,australia,-40.8037,145.1876
5XMLRZJrtRWNeM0aYQENa1,"Lake Weyba, Australia",lake-weyba-australia,Australia,australia,-26.4401,153.0587
5xcQYldjLfElQNPZmqk3iF,"Jasper Beach, Australia",jasper-beach-australia,Australia,australia,-34.442,115.6118
5XCGRgFFjixnFqMwCOnHSd,"The Cutting, Australia",the-cutting-australia,Australia,australia,-38.349,142.3702
5WyMXZlVyUfw2oCtK4pkop,"Tasmania / Port Latta, Australia",tasmania-port-latta-australia,Australia,australia,-40.8555,145.392
5wJrMXOPwXkBprzMjofSED,"Noosa River Mouth, Australia",noosa-river-mouth-australia,Australia,australia,-26.3804,153.0784
5VkFzAGr8Eq5O8BPxNHfSw,"Merimbula Bay, Australia",merimbula-bay-australia,Australia,australia,-36.9013,149.9122
5uNVO9MSeAu2GLmFCdPAiS,"Gerroa, Australia",gerroa-australia,Australia,australia,-34.7727,150.8123
5U9fPxxaPEZ7EyJSrJMCyM,"Tasmania / Caravan Park, Australia",tasmania-caravan-park-australia,Australia,australia,-40.7642,145.2925
5T1ImmaFvTkrbTzMtfAAKr,"Kalang River Mouth, Australia",kalang-river-mouth-australia,Australia,australia,-30.5012,153.0324
5SQieBDC15y6bf9EBcTKVy,"Mullaloo Beach, Australia",mullaloo-beach-australia,Australia,australia,-31.7834,115.7332
5qjXY7YQaIvHZ6eX6FrE5Y,"The Spit Ocean, Australia",the-spit-ocean-australia,Australia,australia,-27.9373,153.4296
5pRIpNeMXC9JLdxK8Cc2lQ,"Nobby Beach, Australia",nobby-beach-australia,Australia,australia,-28.0551,153.4414
5PBkir1CGaEeAoayia6bC1,"Flat Rock Beach, Australia",flat-rock-beach-australia,Australia,australia,-28.8409,153.605
5o8FhS3U3pHyBq3wNNJVQ4,"Sutton Beach, Australia",sutton-beach-australia,Australia,australia,-27.2352,153.1152
5LxBlcgpwbVU6XyQq4XSlM,"Port Gregory, Australia",port-gregory-australia,Australia,australia,-28.1911,114.2507
5kvmP7909AUI6k1nPZ2Vbv,"False Bay, Australia",false-bay-australia,Australia,australia,-32.9733,137.7054
5IwNKSNElI9povneyziGgZ,"Jakes Point, Australia",jakes-point-australia,Australia,australia,-27.7349,114.1461
5Hxsk8cpgvlptiVbBaRdM3,"Coronation Beach, Australia",coronation-beach-australia,Australia,australia,-28.5517,114.5642
5GnXrQRnIHPR2u9xVlF9Bz,"Narrow Neck, Australia",narrow-neck-australia,Australia,australia,-27.985,153.4303
5Fw9wEUvMXbOE2SqYkJYFN,"Bribie Island / Red Beach, Australia",bribie-island-red-beach-australia,Australia,australia,-27.1002,153.1706
5FqKDz69O6poDVPxB7IIzN,"Tasmania / Hawley Beach, Australia",tasmania-hawley-beach-australia,Australia,australia,-41.1549,146.5416
5fplwPRiEfkqBqJwofhnlY,"Lucky Bay, Australia",lucky-bay-australia,Australia,australia,-32.0227,115.8261
5FBbX2rHZE0iMifgh8hYnk,"Seal Island, Australia",seal-island-australia,Australia,australia,-31.8124,115.709
5ds0oZwzWLSNGNXDJli0fK,"Safety Bay, Australia",safety-bay-australia,Australia,australia,-32.3071,115.7138
57cpdMN4EuBiAXM0EkitcL,"Margaret River Main Break, Australia",margaret-river-main-break-australia,Australia,australia,-33.977,114.9853
54AFJrezvVze28KPqco2xh,"Lancelin, Australia",lancelin-australia,Australia,australia,-31.0192,115.3298
50nrEAZZOX7mzBeUfAfiZz,"Hervey Bay / The Dome, Australia",hervey-bay-the-dome-australia,Australia,australia,-25.2831,152.8737
506PAN02bNWMAqFvOjWlba,"Castletown Quays, Australia",castletown-quays-australia,Australia,australia,-33.8377,121.9161
4zgza3hlJibfBVTRXyRjfh,"Sandy Point, Australia",sandy-point-australia,Australia,australia,-38.8279,146.1132
4WzziTUFTPq5OzQiP5lkPY,"Cape Le Grand, Australia",cape-le-grand-australia,Australia,australia,-33.976,122.1174
4wN1M3Pb4ROk0mhpFKoObV,"Monkey Mia, Australia",monkey-mia-australia,Australia,australia,-25.7935,113.7214
4VjvGkzq9e4mQYEHR5LKBF,"Kalbarri, Australia",kalbarri-australia,Australia,australia,-27.7088,114.1579
4V8lVrDpiEnz5lNAFursS6,"Gnaraloo Airstrip, Australia",gnaraloo-airstrip-australia,Australia,australia,-23.7849,113.5274
4t3jag7wU6bqBakZMS439l,"St Georges Basin / Paradise Beach, Australia",st-georges-basin-paradise-beach-australia,Australia,australia,-35.1068,150.6212
4SWUs4enACjWN7o6kUBdpG,"Port Denison, Australia",port-denison-australia,Australia,australia,-29.2823,114.9186
4sc1ipWpp7sK3BATJwHY9I,"Lady Bay, Australia",lady-bay-australia,Australia,australia,-38.3934,142.4882
4saPAqI4KV9pCUC9TX1dz9,"Mackay East Point, Australia",mackay-east-point-australia,Australia,australia,-21.1472,149.2212
4s07YLsxFKsWFcpZ7sy6XS,"Phillip Island / Flynns Beach, Australia",phillip-island-flynns-beach-australia,Australia,australia,-38.4961,145.1491
4lqUvgcSQZFgi7WW0VzzPc,"Woodman Point, Australia",woodman-point-australia,Australia,australia,-32.135,115.7433
4IzdBLWyly58lU2jLKY0Kq,"Ann Street, Australia",ann-street-australia,Australia,australia,-26.7777,153.1381
4hLU02mZCEPDHC1oMqbX64,"Bowen, Australia",bowen-australia,Australia,australia,-20.019,148.2461
4hd36ioMzcQg3azjbLSc8,"Point Moore, Australia",point-moore-australia,Australia,australia,-28.7827,114.5776
4FWpWOlCtDFdv3aZ6ATk5Q,"Tasmania / Nine Mile Beach, Australia",tasmania-nine-mile-beach-australia,Australia,australia,-42.0916,148.1322
4ExNqF8n6A7xUTykiBZBgK,"Killarney, Australia",killarney-australia,Australia,australia,-38.3602,142.2933
4Dk5pfu4HAeHT1tihXCuS2,"Shearwater Esplanade, Australia",shearwater-esplanade-australia,Australia,australia,-27.9115,153.4083
4bSyUhUpn4QBIKs2nLycyo,"Oatland Esplanade, Australia",oatland-esplanade-australia,Australia,australia,-27.9216,153.4069
4AWIYiK9QxkrloXTePCq1V,"Yasso Point, Australia",yasso-point-australia,Australia,australia,-19.9673,148.2261
4asmcXilXGa1p4q7mdXDAl,"Blacks Beach, Australia",blacks-beach-australia,Australia,australia,-21.0595,149.1961
45aoph87xasrOYXnbsUCNm,"Tasmania / Georges Bay, Australia",tasmania-georges-bay-australia,Australia,australia,-41.3261,148.2734
41ODWaiSB7QHIPYWeiw4Y0,"Tuggerah Lake / Canton Beach, Australia",tuggerah-lake-canton-beach-australia,Australia,australia,-33.2716,151.5435
3ylvpmP9M0BjhKxzZIpTyn,"Lennox Head, Australia",lennox-head-australia,Australia,australia,-28.7977,153.595
3wLHKM0d39D23qnHuLfnQi,"Tasmania / Bellbuoy Beach, Australia",tasmania-bellbuoy-beach-australia,Australia,australia,-41.0407,146.8385
3ULQO5NiXGVsoIDxpfjXbf,"Cungulla, Australia",cungulla-australia,Australia,australia,-19.389,147.1131
3uJZiNihHyjOJqAIUzXBHk,"Nambucca Rivermouth, Australia",nambucca-rivermouth-australia,Australia,australia,-30.6505,153.0161
3toFJd3guPHbcCjSnrWulY,"Tasmania / Godfreys Beach, Australia",tasmania-godfreys-beach-australia,Australia,australia,-40.7576,145.297
3TmRDhk3wpmyniQNYlGYHe,"Jervis Bay / Callala Beach, Australia",jervis-bay-callala-beach-australia,Australia,australia,-35.0099,150.7001
3tDu6nRElVLagIxQlU5w4o,"Tasmania / Nettley Bay, Australia",tasmania-nettley-bay-australia,Australia,australia,-40.9105,144.6566
3sKyVIiSjwMxu2HowNkz3T,"Sandbar, Australia",sandbar-australia,Australia,australia,-32.3919,152.5196
3PsDSiPi9geQnDK0LqTgEt,"Alva Beach, Australia",alva-beach-australia,Australia,australia,-19.4559,147.4839
3PpbPg8UZxekidurWdGG8d,"Sygna Shipwreck, Australia",sygna-shipwreck-australia,Australia,australia,-32.858,151.8437
3lpLPi1GlrvbrQ9dt9a3bV,"Whitsunday Island / Whithaven Beach, Australia",whitsunday-island-whithaven-beach-australia,Australia,australia,-20.2561,149.0252
3l7Bkm0HjcQANL7RCJJgu6,"Tasmania / West Inlet, Australia",tasmania-west-inlet-australia,Australia,australia,-40.7882,145.2671
3kiDOlwAE898ahzAQ2OR2g,"Herald Island, Australia",herald-island-australia,Australia,australia,-19.0325,146.6297
3kcgbTQigjfI7sg6DywnQq,"Fourth Mile Beach, Australia",fourth-mile-beach-australia,Australia,australia,-33.8884,121.8294
3k4x3lWH5RaLBqQQTowGgb,"Tasmania / East Inlet, Australia",tasmania-east-inlet-australia,Australia,australia,-40.7901,145.2733
3iS5Sd9O2UeaQ03FvXInAn,"Broulee South Beach, Australia",broulee-south-beach-australia,Australia,australia,-35.8634,150.1681
3fVXBDgITfuTCYCLPh52pj,"Avalon Kite Beach, Australia",avalon-kite-beach-australia,Australia,australia,-32.593,115.6366
3FnhYIjbBB3bUogCbvM8Ks,"Cheyne Bay, Australia",cheyne-bay-australia,Australia,australia,-34.8231,118.401
3fGfgIX3xsA1vzpQXhteW,"Tasmania / St Helens Point, Australia",tasmania-st-helens-point-australia,Australia,australia,-41.3029,148.3291
3amz8k0k2esDwvydQgTVvJ,"Bunker Bay, Australia",bunker-bay-australia,Australia,australia,-33.545,115.0393
39rvaGcDHlIBGW0gH8YkE8,"Town Beach, Australia",town-beach-australia,Australia,australia,-21.1602,149.2008
39JOxDFwLHWQfdBaxUD996,"Beachmere, Australia",beachmere-australia,Australia,australia,-27.1206,153.0604
33aHdSAjCSQUfGDE2j1l2v,"Thirsty Point, Australia",thirsty-point-australia,Australia,australia,-30.5099,115.0582
31AoDhOTAtrVIDzVXHp3KD,"Little Lagoon, Australia",little-lagoon-australia,Australia,australia,-25.8999,113.5385
2YFPUbRjXQfURYCH4TAD8V,"Tasmania / Thunder Reef, Australia",tasmania-thunder-reef-australia,Australia,australia,-40.8611,144.6986
2xye9h1GAoQq8RpXqg86ix,"Leighton, Australia",leighton-australia,Australia,australia,-32.0217,115.7511
2XxMjQYs3p9P5LAPETet4N,"Beachport, Australia",beachport-australia,Australia,australia,-37.4742,140.0312
2XSW3HJb9rtRRGvOg9G5iE,"Merimbula Bar, Australia",merimbula-bar-australia,Australia,australia,-36.8946,149.9209
2xmTMRbXAPdHYvk7eCf8PV,"Separation Point, Australia",separation-point-australia,Australia,australia,-28.7913,114.5974
2wyTpeIySPOBFnSByDrTdm,"Tasmania / Friendly Beaches, Australia",tasmania-friendly-beaches-australia,Australia,australia,-42.0237,148.2831
2WiRYNPG08pA4sHXLgeWbX,"Kite Island, Australia",kite-island-australia,Australia,australia,-27.9273,153.4141
2vZgSC59qFXcR0inrLszat,"The Spit Lagoon, Australia",the-spit-lagoon-australia,Australia,australia,-27.949,153.4225
2Vf0MHzbKiWGMB6ETuzPfP,"Trigg, Australia",trigg-australia,Australia,australia,-31.8773,115.7517
2uSyR5nshWmcnaddRHjdOC,"Currumbin Creek, Australia",currumbin-creek-australia,Australia,australia,-28.1265,153.4845
2TTYSI9XY7VJSiKwS9U9iF,"Seven Mile Beach, Australia",seven-mile-beach-australia,Australia,australia,-34.8508,150.7504
2SQNfub7aR52EgZzgcZwet,"Rame Head, Australia",rame-head-australia,Australia,australia,-35.0477,116.8834
2s5o2nc5kaieiIZ19rkAZe,"Dunsborough, Australia",dunsborough-australia,Australia,australia,-33.6148,115.1126
2RdDx13Ks9SIKBoiD2wpq1,"Augusta Rivermouth, Australia",augusta-rivermouth-australia,Australia,australia,-34.3207,115.1813
2Q5onQvUtAtpG0uvTDxtUR,"Kirra, Australia",kirra-australia,Australia,australia,-28.1658,153.5281
2pWUUh1gzjkdVdliXQUG7U,"Duranbah, Australia",duranbah-australia,Australia,australia,-28.1672,153.5517
2NiQAOdtRPLEvXHJpQCKtX,"Caloundra Rivermouth, Australia",caloundra-rivermouth-australia,Australia,australia,-26.8135,153.1282
2LeWMMmH4CNW4OJhWFzDQX,"Denham, Australia",denham-australia,Australia,australia,-25.9273,113.5315
2LdtNgoppzd0AekzeOerLg,"Birubi Point, Australia",birubi-point-australia,Australia,australia,-32.7825,152.0709
2JoMOUaIvtAVcJWOVvdLry,"Elliston, Australia",elliston-australia,Australia,australia,-33.6448,134.8863
2jF3GVdFONVkacscgtSr4m,"Observatory Beach, Australia",observatory-beach-australia,Australia,australia,-33.9017,121.7794
2HpIb0ecPo9tMOCj0wnG9u,"Busselton, Australia",busselton-australia,Australia,australia,-33.6471,115.337
2GOiBJ3T0VQhm9Riw7vpgh,"Pallaranda Beach, Australia",pallaranda-beach-australia,Australia,australia,-19.2002,146.7745
2G8YpEK6CF1Uk6k6fzETWn,"Caves Beach, Australia",caves-beach-australia,Australia,australia,-33.1033,151.6513
2FcOX31wG77ySvChrf9OEo,"Lake Conjola, Australia",lake-conjola-australia,Australia,australia,-35.2696,150.5054
2FArcj0p3c4NbS9SZZtpkZ,"Stone Island, Australia",stone-island-australia,Australia,australia,-20.0363,148.2787
2egg3yNlewZWOWZneJGnv1,"Fingal Bay, Australia",fingal-bay-australia,Australia,australia,-32.7396,152.1842
2AXgOu1rszmglHWkZd0k0d,"Wellington Point, Australia",wellington-point-australia,Australia,australia,-27.4651,153.24
2ajIJ0KiPj2w1Qy07Qdztk,"Sandgate Beach, Australia",sandgate-beach-australia,Australia,australia,-27.3142,153.0701
2AiieKU4QnCETW6B31V9gW,"Tasmania / Coles Bay, Australia",tasmania-coles-bay-australia,Australia,australia,-42.12,148.2816
2A7kDLs2Vfv9ijjXh6mxMC,"Tasmania / East Beach, Australia",tasmania-east-beach-australia,Australia,australia,-41.0631,146.8059
27eqwk3KQO5ZQ2eDXpUiGl,"Hervey Bay / Tooan Tooan Creek Mouth, Australia",hervey-bay-tooan-tooan-creek-mouth-australia,Australia,australia,-25.2809,152.8467
24z8byzqyY4sCvuCS6tSzM,"Margaret River Rivermouth, Australia",margaret-river-rivermouth-australia,Australia,australia,-33.9701,114.9857
24wcfTV4v1wav8hfAhTuRG,"Pinaroo Point, Australia",pinaroo-point-australia,Australia,australia,-31.8059,115.728
21FDH0KtcwGbcqDkEms5Jj,"Bandy Creek, Australia",bandy-creek-australia,Australia,australia,-33.835,121.9289
1ZoEwRoyL91P8Z6a8q5mC7,"Mandalay Beach, Australia",mandalay-beach-australia,Australia,australia,-35.0049,116.5342
1Z36N4yzoBShPet5DYruce,"Leschenaut Estuary / Australind, Australia",leschenaut-estuary-australind-australia,Australia,australia,-33.2776,115.7128
1uEoCMZpO0v59LIIkNkvy0,"Dingo Beach, Australia",dingo-beach-australia,Australia,australia,-20.0891,148.4966
1TW1K2yacJCVRwsmrgWjLj,"Double Island, Australia",double-island-australia,Australia,australia,-16.7256,145.6836
1tjpQtKbwWdSQetYjXh9tg,"Anglers Esplanade, Australia",anglers-esplanade-australia,Australia,australia,-27.9176,153.4077
1sy1r5RckaK8VjaWurjC1u,"Lake George, Australia",lake-george-australia,Australia,australia,-37.3995,139.993
1suiuEhFHtX1D4P1KFAsYG,"Nanga, Australia",nanga-australia,Australia,australia,-26.2555,113.803
1sKD7kRTyPsKYr2wQiLioV,"Tasmania / Trial Harbour, Australia",tasmania-trial-harbour-australia,Australia,australia,-41.9314,145.1742
1rXhrpKBtUBOPa6Cc4qQyk,"Elliot Heads, Australia",elliot-heads-australia,Australia,australia,-24.9224,152.4903
1R5WWvCpfEqdedJHeIObx2,"Cotton Tree, Australia",cotton-tree-australia,Australia,australia,-26.6515,153.1026
1R4XZiI8s522Mmt2rilIvo,"Whyalla, Australia",whyalla-australia,Australia,australia,-33.0436,137.5781
1qLjX9LMdyDcm2Rg4fGCaP,"Anderson Inlet, Australia",anderson-inlet-australia,Australia,australia,-38.6452,145.7227
1qcp5jDULzKILMNJGOaGs5,"Green Head, Australia",green-head-australia,Australia,australia,-30.06,114.9658
1oYJSyKs1es28doASK8GPq,"Lake Macquarie / Squid's Ink, Australia",lake-macquarie-squid-s-ink-australia,Australia,australia,-33.0467,151.6548
1o2TACbMYZ1wXVNmKD2G52,"Double Island Point, Australia",double-island-point-australia,Australia,australia,-25.9436,153.1808
1nK6U8JqabQWSnBsDeIPGw,"Tasmania / Hazards Beach, Australia",tasmania-hazards-beach-australia,Australia,australia,-42.1743,148.2791
1M6fVQOVvE4nL3ypkRwGFP,"Bluff Reef, Australia",bluff-reef-australia,Australia,australia,-41.0064,144.609
1IkaYYm79C743g2VmwRWvC,"Anglesea, Australia",anglesea-australia,Australia,australia,-38.4136,144.1933
1hx8GeWimLa07Wm3Th2daJ,"Blacksmiths Beach, Australia",blacksmiths-beach-australia,Australia,australia,-33.0827,151.6593
1guNY3l3LL4RIUfzUnYQSt,"Big Lagoon, Australia",big-lagoon-australia,Australia,australia,-25.7749,113.4757
1gsm5Yyiy2xa5Iaqei33Tw,"Johanna Beach, Australia",johanna-beach-australia,Australia,australia,-38.7637,143.3809
1gl0W8JwsK4X3IwMoCq8nj,"Evans Head, Australia",evans-head-australia,Australia,australia,-29.10322695,153.4328718
1eTEraPwM8aTZkIEdk4jHV,"Magnetic Island / Nelly Bay, Australia",magnetic-island-nelly-bay-australia,Australia,australia,-19.1662,146.8482
1E9u9mKuzTMdndcUMx7izl,"Gnaraloo Bay, Australia",gnaraloo-bay-australia,Australia,australia,-23.767,113.546
1dgGmQvCeALpymQjsGH5Ee,"St Georges Beach, Australia",st-georges-beach-australia,Australia,australia,-28.7451,114.618
1BaczC8ZEKiPE0PnD4pnll,"Mermaid Beach, Australia",mermaid-beach-australia,Australia,australia,-28.049,153.4399
1b9q3wZuZHIr2sJfXsWAQF,"Hervey Bay / Neptunes Aquarium, Australia",hervey-bay-neptunes-aquarium-australia,Australia,australia,-25.2903,152.9089
1ajySksaalsGyYheONbzON,"Tasmania / Bakers Beach, Australia",tasmania-bakers-beach-australia,Australia,australia,-41.1432,146.6
1AVNMYeicxYKw3TPD1ALaU,"Bells Beach, Brisbane, Australia",bells-beach-brisbane-australia,Australia,australia,-27.2569,153.0908
16zFWnVUgy41op9M4Oi76X,"Burleigh Heads 5th Ave, Australia",burleigh-heads-5th-ave-australia,Australia,australia,-28.078,153.4485
16cKYFmXCstnzfd1H0YfUn,"Ledge Point, Australia",ledge-point-australia,Australia,australia,-31.1107,115.3716
16blEUaNneRzYYpO3p0BYa,"St Georges Basin / John Williams Reserve, Australia",st-georges-basin-john-williams-reserve-australia,Australia,australia,-35.1145,150.6397
13BFBR5BWIoyGV4ro3t4yp,"Pambula Beach, Australia",pambula-beach-australia,Australia,australia,-36.9386,149.9082
12LsFb5zjtnrN1z3o1F4ez,"Fourmile Beach, Australia",fourmile-beach-australia,Australia,australia,-16.4928,145.4675
11rzZupypfRRZ8WXlDhOEf,"Nambucca Heads, Australia",nambucca-heads-australia,Australia,australia,-30.6403,153.0167
11PA47aHJSmQH6wg8L0PsQ,"Lake King / Eagle Point, Australia",lake-king-eagle-point-australia,Australia,australia,-37.8828,147.6905
11IZvbSTWlq5IEqsrep5bk,"Conway Beach, Australia",conway-beach-australia,Australia,australia,-20.4794,148.7399
0BJAYy1Ef2HoTHs5H9H6Y,"Swan River / Point Walter, Australia",swan-river-point-walter-australia,Australia,australia,-32.0105,115.786
4Pmd2w54AqfsmGMNaugwrq,"Evans Head, Australia",evans-head-australia-2,Australia,australia,-29.10320324,153.4330007
5yYx69IDPm281wm3K7UdTr,"La Pinta, Mexico",la-pinta-mexico,Mexico,mexico,31.2044,-113.0896
33f1Dbz5NBySXCZfWW0BPE,"Vung Tau, Vietnam",vung-tau-vietnam,Vietnam,vietnam,10.3382,107.0927
UvFDHdDpfpiyhisgRrQJ4,"Capo Suvero, Italy",capo-suvero-italy,Italy,italy,38.9492,16.1596
Uoz40RYxPyESYVAX2xLPT,"Barbasquillo, Ecuador",barbasquillo-ecuador,Ecuador,ecuador,-0.9443,-80.749
Un0c6zXOLw5UPxdw59DjG,"Hatteras / Chicamacomico House, North Carolina (USA)",hatteras-chicamacomico-house-north-carolina-usa,North Carolina (USA),north-carolina-usa,35.4067,-75.494
umPqlInqtTiavKGISvAF5,"Sotogrande, Spain",sotogrande-spain,Spain,spain,36.2876,-5.274
UMJoy29ufk3rcbfwRuAxr,"Farstadstranda, Norway",farstadstranda-norway,Norway,norway,62.9834,7.1539
0196q8sAvhca0Kj1CPZffS,"Wildcat Park, Texas (USA)",wildcat-park-texas-usa,Texas (USA),texas-usa,27.8702,-97.3193
01DzwVfIZny3thUDnvudyh,"Gialova, Greece",gialova-greece,Greece,greece,36.9456,21.7082
01FFqznKpEzZTmvNRsUtjR,"Serre Poncon / Embrun, France",serre-poncon-embrun-france,France,france,44.5459,6.4602
01IuTCAFhkqo0Un0LGp8Zb,"Maui / Kite Beach, Hawaii (USA)",maui-kite-beach-hawaii-usa,Hawaii (USA),hawaii-usa,20.8977,-156.4481
01Jvf9QcU2WNfBWLROrEkD,"Sal / Fontona, Cape Verde",sal-fontona-cape-verde,Cape Verde,cape-verde,16.7477,-22.9776
01kI2Wl1IPWTPTtu2OuxQE,"Marzocca, Italy",marzocca-italy,Italy,italy,43.6498,13.3508
01nxpk9njux849V1sAwlPM,"Tucson Beach, Mexico",tucson-beach-mexico,Mexico,mexico,31.3441,-113.6412
01pOdcDyqRC65Q632K6Ayc,"Mansa, Brazil",mansa-brazil,Brazil,brazil,-3.7025,-38.4758
01rJU6Nm8kkzznowoQY5qe,"Fort Desoto / East Beach, Florida (USA)",fort-desoto-east-beach-florida-usa,Florida (USA),florida-usa,27.6357,-82.6998
01SgMFzKhe4Vaaj4qRN8rM,"Naxos / Agios Prokopis, Greece",naxos-agios-prokopis-greece,Greece,greece,37.0511,25.3694
01wpe7Y0Uq9ZwsNAU9fd08,"Cocos Keeling Islands / Kite Beach, Australia",cocos-keeling-islands-kite-beach-australia,Australia,australia,-12.1924,96.8596
02f12n6vyMMbEGRv0hDcP,"Colili Point, Philippines",colili-point-philippines,Philippines,philippines,18.089,120.4727
057Y59ctwEgKBdrWzJVVw,"El Corniche, Egypt",el-corniche-egypt,Egypt,egypt,31.2611,29.9813
07bOvDNnXIEVbOMMBabQT,"Markermeer / Edam, Netherlands",markermeer-edam-netherlands,Netherlands,netherlands,52.5386,5.0546
0D2cDCjTWUXLgBq5glqZG,"Bitez, Turkey",bitez-turkey,Turkey,turkey,37.0303,27.4067
0DI3ykofDmdroWZRVCQjM,"Passe De Dumbea, New Caledonia",passe-de-dumbea-new-caledonia,New Caledonia,new-caledonia,-22.3643,166.2584
0dtt43zhhK1zx5R8VcjLo,"Balneario Arroio do Silva, Brazil",balneario-arroio-do-silva-brazil,Brazil,brazil,-28.9878,-49.4112
0EPIs7MH4DYCnRyo8tmk,"Magong / Cingluo Beach, Taiwan",magong-cingluo-beach-taiwan,Taiwan,taiwan,23.5751,119.5133
0GhcOyT1UkOBI15Mbp89F,"Lake Michigan / Ludington Shore Line, Michigan (USA)",lake-michigan-ludington-shore-line-michigan-usa,Michigan (USA),michigan-usa,43.9576,-86.4611
0JjBfUwW33Pn2ptFvmkAH,"Palplanche, Gabon",palplanche-gabon,Gabon,gabon,-0.6218,8.7151
0KEa3cSPR72IODA4SIzyG,"La Digue de Break, France",la-digue-de-break-france,France,france,51.0505,2.2994
0WR6rXdWZ26Bao6l1AVTA,"Helioland, Egypt",helioland-egypt,Egypt,egypt,25.9712,34.3632
0xkYkHJwS5zONeHvrV0tO,"Playa Negra, Costa Rica",playa-negra-costa-rica,Costa Rica,costa-rica,10.1956,-85.8313
0xMtlVgacCr5WcDVUa2nA,"Grandcamp, France",grandcamp-france,France,france,49.3899,-1.0444
103hSLuXyNSWfNayYWcudh,"Ile de Lameque / Point Campbell, Canada",ile-de-lameque-point-campbell-canada,Canada,canada,47.8731,-64.5681
105sK7UN2szXDJ2xmJKtrA,"Towra Point, Australia",towra-point-australia,Australia,australia,-34.0003,151.1634
10E0phJdv1PzCUWZ0jOUpi,"Terschelling / Groene Strand, Netherlands",terschelling-groene-strand-netherlands,Netherlands,netherlands,53.358,5.2018
10LtI1kMjQAHqDLGAyrPIY,"Mariscal, Brazil",mariscal-brazil,Brazil,brazil,-27.1831,-48.4999
10tn3Jbn6OMQ5zktqSncIO,"Kazantip Bay West, Ukraine",kazantip-bay-west-ukraine,Ukraine,ukraine,45.4377,35.8255
10ud1aRX3ynt1Dj5HEFIu9,"Helenesee, Germany",helenesee-germany,Germany,germany,52.2756,14.4979
10vufKDlTw1tuRDilCPmH5,"Platboombaai, South Africa",platboombaai-south-africa,South Africa,south-africa,-34.3359,18.4495
10xRkXhbcCSiUVLQeUvWdT,"Paros / Pounda, Greece",paros-pounda-greece,Greece,greece,37.03,25.0977
10Zj4hVKRh3cLa15lE1W8U,"Parque La Esperanza, Puerto Rico",parque-la-esperanza-puerto-rico,Puerto Rico,puerto-rico,18.4581,-66.137
110GKd1ERzoZHx0szGR9I3,"Amrum / Wittduen, Germany",amrum-wittduen-germany,Germany,germany,54.6272,8.4008
11dzYS1BldSEexkNxhcSI0,"Avalanche, South Africa",avalanche-south-africa,South Africa,south-africa,-33.9837,25.6706
11jhNHZ6yDOoQzJqHZb6OK,"Kent Island / Matapeake, Maryland (USA)",kent-island-matapeake-maryland-usa,Maryland (USA),maryland-usa,38.9575,-76.3539
11m55sFCrskw9ddlPPTAJR,"Sardinia / Capo Comino, Italy",sardinia-capo-comino-italy,Italy,italy,40.5489,9.7923
11ne4Ci0dmPWmIhAIfoNal,"Gouritzmond, South Africa",gouritzmond-south-africa,South Africa,south-africa,-34.3514,21.8841
11qCf9tO1wwnSF1aSkSV21,"Achensee / Street Launch, Austria",achensee-street-launch-austria,Austria,austria,47.4516,11.7136
11rKe4XIdhTQNevlQaeTva,"Jupiter Island / Hobe Sound, Florida (USA)",jupiter-island-hobe-sound-florida-usa,Florida (USA),florida-usa,27.0665,-80.1151
11ro2zmhnTxkjRvz96UoQJ,"Bel Ombre, Mauritius",bel-ombre-mauritius,Mauritius,mauritius,-20.5054,57.4022
12C7rvtOPDPGqzux3Dy69z,"Hammonasset State Park, Connecticut (USA)",hammonasset-state-park-connecticut-usa,Connecticut (USA),connecticut-usa,41.2494,-72.5454
12HK8QbyAnJybYUNmkpg3p,"Lancing Beach, England (UK)",lancing-beach-england-uk,England (UK),england-uk,50.8201,-0.3211
12JTYtQLVbHvLh34UvVvzu,"Affenruecken Point, Namibia",affenruecken-point-namibia,Namibia,namibia,-27.9325,15.6756
12lTpadeICdXDR1bnPYxcI,"Pontechianale, Italy",pontechianale-italy,Italy,italy,44.6195,7.0321
12mGohVL7q1PPoyBi03EVb,"Hoenoe / Brofaestet, Sweden",hoenoe-brofaestet-sweden,Sweden,sweden,57.6783,11.6677
12MIeB6IaeR1G2sPmwfSjN,"Fishermen's Hut, Aruba",fishermen-s-hut-aruba,Aruba,aruba,12.5855,-70.0457
12n3fsYRuEKksSUIltzYvj,"Ledaig, Scotland (UK)",ledaig-scotland-uk,Scotland (UK),scotland-uk,56.4773,-5.4024
12OxMoVY1IHqNavTaFk7UI,"Pornichet, France",pornichet-france,France,france,47.2659,-2.347
12QInRb0bXOGzBYNDHdAdF,"Corsica / Plage des Dunes, France",corsica-plage-des-dunes-france,France,france,42.5557,8.7718
12rFtNYDMc1kXEdI4DzxvY,"Seneca Lake / State Park, New York (USA)",seneca-lake-state-park-new-york-usa,New York (USA),new-york-usa,42.8727,-76.9457
12rYeuS2np5D7Dll4yByS3,"Banquito Punta de Fuego, Argentina",banquito-punta-de-fuego-argentina,Argentina,argentina,-32.8083,-60.6907
12rZ1llHXY2HjtnG8owEql,"Ijmuiden, Netherlands",ijmuiden-netherlands,Netherlands,netherlands,52.4458,4.5605
12W1MIZRQxPZRN2gU9gVcu,"Isle of Wight / Compton Bay, England (UK)",isle-of-wight-compton-bay-england-uk,England (UK),england-uk,50.6625,-1.4772
12WgnYrcsHCi9OQeJ2bDfq,"Dale, Wales (UK)",dale-wales-uk,Wales (UK),wales-uk,51.7087,-5.1685
12xbqW6bWDCyKMXWR1XGGo,"Efate / Soumabal Point, Vanuatu",efate-soumabal-point-vanuatu,Vanuatu,vanuatu,-17.8144,168.4993
131jRK4iqlR8ausYupbbQu,"Fehmarn / Gollendorf, Germany",fehmarn-gollendorf-germany,Germany,germany,54.4518,11.0688
135VrD3VTPv7u3nzLRHWID,"Acapulco Beach, Mexico",acapulco-beach-mexico,Mexico,mexico,16.7739,-99.7965
13BFIKwEiNdCfvc23yBkzZ,"Fregene, Italy",fregene-italy,Italy,italy,41.832,12.2031
13eURDE0Ynq2G5ThEyxXQP,"Tokerau Beach, New Zealand",tokerau-beach-new-zealand,New Zealand,new-zealand,-34.8888,173.3707
13EvYOrcMFd8l2t51pRW8a,"Peffer Sands, Scotland (UK)",peffer-sands-scotland-uk,Scotland (UK),scotland-uk,56.0298,-2.6035
13gVykxAkddVOshhsx8SQm,"Sjaelland / Lynaes, Denmark",sjaelland-lynaes-denmark,Denmark,denmark,55.9431,11.8625
13jnu2KD570TV5uc3rYoVg,"Schlei / Arnis, Germany",schlei-arnis-germany,Germany,germany,54.6274,9.926
13oLCgQnaLWGNcCcRCDffB,"Moorea / Afareaitu, French Polynesia",moorea-afareaitu-french-polynesia,French Polynesia,french-polynesia,-17.5588,-149.7788
13QvGCSBOpmqCeMUuFPR86,"Cervia, Italy",cervia-italy,Italy,italy,44.2658,12.3595
14aqg1qULNANO4SLQsZqnq,"Lake Clinton / State Park Marina, Kansas (USA)",lake-clinton-state-park-marina-kansas-usa,Kansas (USA),kansas-usa,38.9279,-95.3526
14atXcXrEO5eDFxwniGJCZ,"Pohnpei / Mwahnd, Micronesia",pohnpei-mwahnd-micronesia,Micronesia,micronesia,7.0184,158.2938
14AWNJUduiV6xIkQJ1bPZJ,"Tofinho, Mozambique",tofinho-mozambique,Mozambique,mozambique,-23.8653,35.5524
14fAZKCNAX2e3edj29iNBd,"Husebystranden, Norway",husebystranden-norway,Norway,norway,58.0703,6.7772
14hJ9tWz1mUnB0cNjwrBb0,"Equihen Plage, France",equihen-plage-france,France,france,50.6672,1.5703
14hUbybXuyhIrvuuXELxdY,"Maui / Kealia Beach, Hawaii (USA)",maui-kealia-beach-hawaii-usa,Hawaii (USA),hawaii-usa,20.7895,-156.4735
14iUn1wI6zXBbZsbbgPo8e,"Sanibel Island / Lighthouse Point, Florida (USA)",sanibel-island-lighthouse-point-florida-usa,Florida (USA),florida-usa,26.4528,-82.0137
14Nv5KFEThDBu3DRHkzlRD,"Socotra Island / Qashio, Yemen",socotra-island-qashio-yemen,Yemen,yemen,12.6079999999999,53.857
14nzjpk8S9u7QDcMRS3Tpv,"Stiltsville, Florida (USA)",stiltsville-florida-usa,Florida (USA),florida-usa,25.6401,-80.1637
14ovrEpBZ8XaHatCUJavx1,"Magong / Shihli, Taiwan",magong-shihli-taiwan,Taiwan,taiwan,23.5254,119.5674
14Qs2GgpDxv1nVVzDnGHSG,"Isla Ensenada / Morro Negrito, Panama",isla-ensenada-morro-negrito-panama,Panama,panama,8.0456,-81.7127
14R9ODQuqTvXzYhJjn60rS,"Port Phillip Bay / Apex Park, Australia",port-phillip-bay-apex-park-australia,Australia,australia,-37.8751,144.8145
14SAG8rjgeOrX6hwG3tjzk,"Le Portel, France",le-portel-france,France,france,50.7124,1.571
14sBG2pyV9ExuIGyN38USt,"Lough Neagh / Antrim, Ireland",lough-neagh-antrim-ireland,Ireland,ireland,54.7149,-6.24
14tevMaHtoMTyIAUdNqt8B,"Mille Lacs / Hunter's Point, Minnesota (USA)",mille-lacs-hunter-s-point-minnesota-usa,Minnesota (USA),minnesota-usa,46.2496,-93.5297
14vrvc1HpYHKzH2kHaGOqe,"Kho Pha Ngan / Kho Ma, Thailand",kho-pha-ngan-kho-ma-thailand,Thailand,thailand,9.7984,99.9803
14W09kjjdVwZvSmLteIQna,"Playa Buen Hombre, Dominican Republic",playa-buen-hombre-dominican-republic,Dominican Republic,dominican-republic,19.8696,-71.4036
14W1axBpoBbQ1xX9zPBJr3,"Kos / Kefalos, Greece",kos-kefalos-greece,Greece,greece,36.7464,26.9741
14xBKS7C4HnIyrlNiDPjjr,"Pismo Beach, California (USA)",pismo-beach-california-usa,California (USA),california-usa,35.1357,-120.6418
14XtIKgWUMA1hQGLSLd4Fy,"Wremen, Germany",wremen-germany,Germany,germany,53.6446,8.4934
155hshUA27PCVSklEYZf7A,"Lippe Sued, Germany",lippe-sued-germany,Germany,germany,54.3349,10.6492
156W2mVkgpMKMthe8O3a05,"Oosterschelde / Roompot Strand, Netherlands",oosterschelde-roompot-strand-netherlands,Netherlands,netherlands,51.5936,3.7332
157JtaCgZSErbJtbf3BqeR,"Leo Carillo, California (USA)",leo-carillo-california-usa,California (USA),california-usa,34.0458,-118.9317
159rzf8dN0kZimI9YYKGfG,"Jeffreys Bay, South Africa",jeffreys-bay-south-africa,South Africa,south-africa,-34.0524,24.925
15AG84B2u9ffiOUtDBmgeo,"Pigeon Lake, Canada",pigeon-lake-canada,Canada,canada,53.0252,-114.0571
15b9LMr1eGQYtY3rFYspEM,"Sjaelland / Niva Harbor, Sweden",sjaelland-niva-harbor-sweden,Sweden,sweden,55.938,12.5284
15B9P5jvA41VqmKASDJJfz,"New Providence / Jaws Beach, Bahamas",new-providence-jaws-beach-bahamas,Bahamas,bahamas,25.0184,-77.5457
15bc5bNPgkLMHVaXgTl5Rg,"Raul's, Mexico",raul-s-mexico,Mexico,mexico,32.3769,-117.0766
15gw102iviUJxgtop1C5Pz,"Xantener Suedsee, Germany",xantener-suedsee-germany,Germany,germany,51.6795,6.4491
15hFyDuXchLgB02gP7ZP6h,"Puemape, Peru",puemape-peru,Peru,peru,-7.519,-79.5405
15HkVESbgBY79Hztezyea1,"Spy House, New Jersey (USA)",spy-house-new-jersey-usa,New Jersey (USA),new-jersey-usa,40.4399,-74.0932
15iJWho5F7jylCG8nvP1zR,"Mui Ne Beach, Vietnam",mui-ne-beach-vietnam,Vietnam,vietnam,10.9434,108.198
15nbqO0yL3GpgAbRZ3yHzW,"Hood Canal / Belfair State Park, Washington (USA)",hood-canal-belfair-state-park-washington-usa,Washington (USA),washington-usa,47.4292,-122.876
15rHDABlZDRoD9igI138rj,"Trinidad / Mayaro Beach, Trinidad and Tobago",trinidad-mayaro-beach-trinidad-and-tobago,Trinidad and Tobago,trinidad-and-tobago,10.2414,-61.0011
15rukqi3bwMP3dnPy10avT,"Maputo Kite Beach, Mozambique",maputo-kite-beach-mozambique,Mozambique,mozambique,-25.9229105,32.64060055
15RX6ipEcCghlLjkKZWiBW,"Altafulla, Spain",altafulla-spain,Spain,spain,41.1335,1.3755
15tqRymxexa6wuQwEBX2vS,"Ritoque, Chile",ritoque-chile,Chile,chile,-32.8889,-71.5135
15uFY7D1BbHpHfKuVvKehH,"Tube Wave, South Africa",tube-wave-south-africa,South Africa,south-africa,-33.7245,18.4418
15YysEdWNnJtqq9RwM2yiY,"Pantai Balok, Malaysia",pantai-balok-malaysia,Malaysia,malaysia,3.9265,103.3742
163O1uqQM8xuGhH99nVI6x,"Banana Beach, South Africa",banana-beach-south-africa,South Africa,south-africa,-30.6599,30.5174
163YPkPNMczl7Rq6Jg6nnY,"Masirah Island / Sur Masirah, Oman",masirah-island-sur-masirah-oman,Oman,oman,20.4232,58.7302
165z3gO01lp2Sz2ts54DAh,"Long Key / Blue Flag Beach, Florida (USA)",long-key-blue-flag-beach-florida-usa,Florida (USA),florida-usa,27.7211,-82.7412
166bz6LvsHobxO0BlgarhT,"Isla Margarita / La Carmela, Venezuela",isla-margarita-la-carmela-venezuela,Venezuela,venezuela,11.0563,-64.3306
16A8hO1zXsF6tHmGifJoKS,"Cayo Guillermo / Playa Pillar, Cuba",cayo-guillermo-playa-pillar-cuba,Cuba,cuba,22.6122,-78.6978
16guRQ9tSKuruk77CQNcbQ,"La Barranca, Peru",la-barranca-peru,Peru,peru,-7.3264,-79.591
16KSfgJYBDbH9a9CPOozVB,"Kho Lan, Thailand",kho-lan-thailand,Thailand,thailand,12.9248,100.7781
16OsKqUCfvg47PsW7HyJ9t,"Bodensee / Ludwigshafen, Germany",bodensee-ludwigshafen-germany,Germany,germany,47.8142,9.0636
16P1zm9ykmZLAA2Cr9604C,"Hatteras / Planet of the Apes, North Carolina (USA)",hatteras-planet-of-the-apes-north-carolina-usa,North Carolina (USA),north-carolina-usa,35.4857,-75.4825
16P6rW557CzDyFoLbl4Waa,"Satrastrandsbadet, Sweden",satrastrandsbadet-sweden,Sweden,sweden,59.2875,17.8922
16qePvEvSDjl6dR3k1w9Ln,"Paramali, Cyprus",paramali-cyprus,Cyprus,cyprus,34.6633,32.7983
16tYOlfASNQIQisveoeq71,"Mundau, Brazil",mundau-brazil,Brazil,brazil,-3.1741,-39.3606
16xHJ6uqvJM1KMrkauvM91,"Quiberville, France",quiberville-france,France,france,49.9056,0.925999999999999
16XUQzRnqcLnFxeuNgNe2J,"Capo Miseno, Italy",capo-miseno-italy,Italy,italy,40.7866,14.0811
16yPzC1NbzmkOWkm2ZFQgz,"Nantucket Island / Madaquecham, Massachusetts (USA)",nantucket-island-madaquecham-massachusetts-usa,Massachusetts (USA),massachusetts-usa,41.2444,-70.0682
16zIeysnMzmMScNdovsqO5,"Akyarlar, Turkey",akyarlar-turkey,Turkey,turkey,36.9662,27.2784
170KCugNiXAXWPI5hcnaDN,"Vellai Island, Sri Lanka",vellai-island-sri-lanka,Sri Lanka,sri-lanka,8.4052,79.8097
170ndPwOMRlu0EsnghL2at,"Elly Beach, Ireland",elly-beach-ireland,Ireland,ireland,54.1543,-10.1028
171uXZZQcaPzNzs0rPMZ55,"Banquito San Andres, Argentina",banquito-san-andres-argentina,Argentina,argentina,-32.959,-60.6034
17aPbsJpBvVum07NwzAoMl,"Porto Corsini, Italy",porto-corsini-italy,Italy,italy,44.4998,12.2837
19BR2xHJJBXFkFPGF43Y3g,"Riacho Doce, Prea, Brazil",riacho-doce-prea-brazil,Brazil,brazil,-2.8052,-40.4525
17EKEqKLucsunHxtVe3wek,"Benaulim Beach, India",benaulim-beach-india,India,india,15.2513,73.9209
17ezQBzJCA8KNn53UDNT3n,"Eastbourne, New Zealand",eastbourne-new-zealand,New Zealand,new-zealand,-41.2937,174.893
17zkHLRpEMmPYYtotMLHLQ,"Les Lecques, France",les-lecques-france,France,france,43.1718,5.691
182PZmtRWSGlyHN0ycV8sX,"Rio Copiapo, Chile",rio-copiapo-chile,Chile,chile,-27.3124,-70.9308
183PBNMfEtOlorsCid93Sh,"Peru Beach, Argentina",peru-beach-argentina,Argentina,argentina,-34.4709,-58.4913
189vWzB2QQmod6DoxpXnm1,"Gleneden Beach, Oregon (USA)",gleneden-beach-oregon-usa,Oregon (USA),oregon-usa,44.8758,-124.0391
18b47RrshtkCw743hT5b02,"Crete / Anissaras, Greece",crete-anissaras-greece,Greece,greece,35.3394,25.372
18FfdQkidmLlOpB2SCioZf,"Castelinho, Brazil",castelinho-brazil,Brazil,brazil,-28.2449,-48.6631
18htImfSBlB71KsFpJRzxA,"Sylt / Moewennest, Germany",sylt-moewennest-germany,Germany,germany,54.773,8.3006
18pnvH4z3auuLVBeuHU7ag,"Lac St-Pierre / Pointe du Lac, Canada",lac-st-pierre-pointe-du-lac-canada,Canada,canada,46.2818,-72.6789
18wmc2gwF3JjpeLxWLc40l,"Ilha do Guajiru / Praia da Barra, Brazil",ilha-do-guajiru-praia-da-barra-brazil,Brazil,brazil,-2.881,-39.9082
18xYg1NEVM5C0fMg70gjZC,"Riddell Rd, New Zealand",riddell-rd-new-zealand,New Zealand,new-zealand,-36.8626,174.8776
18zMToo5xIaUKUYRJzPkBn,"Waquiot Bay, Massachusetts (USA)",waquiot-bay-massachusetts-usa,Massachusetts (USA),massachusetts-usa,41.5571,-70.5153
199C1w67QQ1tYnHFcSoufs,"Stonefields, New Zealand",stonefields-new-zealand,New Zealand,new-zealand,-36.9961,174.7435
19dPMZL2gjUX7rGm8GBa0O,"Upolu / Salani, Samoa",upolu-salani-samoa,Samoa,samoa,-14.0358,-171.6119
19DRqr9WUyLI5uLacY68Rg,"El Naaba, Egypt",el-naaba-egypt,Egypt,egypt,25.3194,34.7449
19ICtNsUnlOc1iNUSgcQqY,"Bubiu Tvenkinys / Kiru Spotas, Lithuania",bubiu-tvenkinys-kiru-spotas-lithuania,Lithuania,lithuania,55.903,23.0978
19newZkpRq4MIzD5394fX3,"Umag Punta, Croatia",umag-punta-croatia,Croatia,croatia,45.4416,13.5086
19PI2EOqkQPV5j6PlB2Fq1,"Efate / Breakas, Vanuatu",efate-breakas-vanuatu,Vanuatu,vanuatu,-17.7768,168.2919
19pU3ZECCHaKwTYSAIOcHn,"Las Aves de Sotavento, Venezuela",las-aves-de-sotavento-venezuela,Venezuela,venezuela,12.0605,-67.6833
19pXgd7WaFKylSWFGq4Q3I,"Vilshaerad, Sweden",vilshaerad-sweden,Sweden,sweden,56.6993,12.6855
19Ss1AGonHPpsh3BH463fd,"Nallikari, Finland",nallikari-finland,Finland,finland,65.0325,25.409
19tvm7BcBagO9wsDI5FTiQ,"Archers Spot, Nauru",archers-spot-nauru,Nauru,nauru,-0.5417,166.9505
19vXd6SFhDXLJTWO0glg7j,"La Vila Joiosa, Spain",la-vila-joiosa-spain,Spain,spain,38.5055,-0.228999999999999
19wksyJLc177uAgGRCPBNA,"Conimicut Light, Rhode Island (USA)",conimicut-light-rhode-island-usa,Rhode Island (USA),rhode-island-usa,41.7177,-71.3578
19xMgVmM2MndFcQ0nm1Lpl,"Na Kluea, Thailand",na-kluea-thailand,Thailand,thailand,12.9652,100.8838
19xpX77fsyFB0J1ev1b4Aq,"Guacalillo, Costa Rica",guacalillo-costa-rica,Costa Rica,costa-rica,9.7919,-84.6446
19XtYnjWtcWvtT0fz6K0a7,"Zunguene, Mozambique",zunguene-mozambique,Mozambique,mozambique,-25.2013,33.5082
19Y1eWGXtAKV8cF6qDgEhp,"Canyon Ferry Lake / Wreknball's Hollow, Montana (USA)",canyon-ferry-lake-wreknball-s-hollow-montana-usa,Montana (USA),montana-usa,46.5532,-111.5791
19YG6DnSKu4qc5hnVLAJx5,"The Spit, Somalia",the-spit-somalia,Somalia,somalia,10.5364,51.1932
19ZGs3F3xfmFgkh5GCIvPD,"Hendersons Bay / Purdy, Washington (USA)",hendersons-bay-purdy-washington-usa,Washington (USA),washington-usa,47.3797,-122.6409
1A8XV48mHQOUGIbauhxO9h,"Annagassan, Ireland",annagassan-ireland,Ireland,ireland,53.8795,-6.3376
1aBQbAOeIfjUppRDTFqzsX,"Esposende River, Portugal",esposende-river-portugal,Portugal,portugal,41.5344,-8.7893
1acakqrPkyK1NZI1dn5gZj,"Cabopino West, Spain",cabopino-west-spain,Spain,spain,36.4845,-4.7437
1ACobBNpWUtTD0RsAI633H,"Porti Ri, Albania",porti-ri-albania,Albania,albania,40.4906,19.4309
1ADXDX6nupwOhUo6xtgB4b,"South Padre Island / Dolphin Cove, Texas (USA)",south-padre-island-dolphin-cove-texas-usa,Texas (USA),texas-usa,26.069,-97.1611
1aEAglz0NZgd32o688JjYM,"North Beach, South Africa",north-beach-south-africa,South Africa,south-africa,-29.8448,31.037
1aHSciwTBnoluK5PaN8jOF,"Mar Menor / Los Narejos, Spain",mar-menor-los-narejos-spain,Spain,spain,37.7533,-0.8356
1aiO9ey02Vb3QPZkkfpssC,"Lovns Bredning / Lundo, Denmark",lovns-bredning-lundo-denmark,Denmark,denmark,56.6551,9.1516
1aJ8k9x2v8DfWn3MyRjyY8,"Sardinia / Santa Giusta, Italy",sardinia-santa-giusta-italy,Italy,italy,39.871767,8.608908
1AjDth1JDNz0kELE8sYmFt,"Last Mountain Lake / Regina Beach, Canada",last-mountain-lake-regina-beach-canada,Canada,canada,50.7969,-104.984
1aLjKThYCsp3LCOd6WB0dR,"Vravrona Bay, Greece",vravrona-bay-greece,Greece,greece,37.9268,24.0025
1ALMk5ELUE7apm16XfM9jA,"Fuerteventura / Majanicho, Canary Islands",fuerteventura-majanicho-canary-islands,Canary Islands,canary-islands,28.7482,-13.9305
1Am2yratXFISUJBeYXcPaM,"Malololailai Island, Fiji Islands",malololailai-island-fiji-islands,Fiji Islands,fiji-islands,-17.7738,177.1984
1AN0XRKeGf8XyVyiIKJQXp,"Cova, Portugal",cova-portugal,Portugal,portugal,40.123,-8.8643
1AP21Uu3yPQiW29CyrR4PW,"Nahrh Ibrahim, Lebanon",nahrh-ibrahim-lebanon,Lebanon,lebanon,34.0617,35.6425
1aPE0kdAFfpkCxjYLVSKuo,"Sandy Hook / South Beach Area C, New Jersey (USA)",sandy-hook-south-beach-area-c-new-jersey-usa,New Jersey (USA),new-jersey-usa,40.4163,-73.9793
1apGJ6mPzDXN7FEObhdmpN,"Port Phillip Bay / Rye, Australia",port-phillip-bay-rye-australia,Australia,australia,-38.3701,144.8288
1AqGb2zhxeffiwCTiASGM4,"Haeundae, South Korea",haeundae-south-korea,South Korea,south-korea,35.1591,129.1619
1aRHoiFuSttiszXXYx3kq0,"Rosarito Pier, Mexico",rosarito-pier-mexico,Mexico,mexico,32.3328,-117.0554
1ASvOk06HvRRRrbSnehtWM,"Trestel, France",trestel-france,France,france,48.8212,-3.3534
1aY632HgP81EzPMBIgBUlR,"Weissenhaus, Germany",weissenhaus-germany,Germany,germany,54.3065,10.7669
1aYvdTKJVi86Qaydbbwj2C,"Poel / Timmendorf, Germany",poel-timmendorf-germany,Germany,germany,53.9927,11.3749
1azdD4NX45LMcgAnpEd7rK,"Sunset Beach, South Africa",sunset-beach-south-africa,South Africa,south-africa,-33.8541,18.4888
1AZEUaSggra86hluNAAqYD,"North Bimini / Native Channel Beach, Bahamas",north-bimini-native-channel-beach-bahamas,Bahamas,bahamas,25.7685,-79.2485
1b42U4SBAIkKymjym0blIt,"Thurlestone, England (UK)",thurlestone-england-uk,England (UK),england-uk,50.2606,-3.8578
1bbw56AB0Yd9vtfPVNGINz,"Ladies Mile, Cyprus",ladies-mile-cyprus,Cyprus,cyprus,34.6103,33.0057
1BC4M1W6Kyf120Rdb2Pjwc,"Ihumateo Rd, New Zealand",ihumateo-rd-new-zealand,New Zealand,new-zealand,-36.9887,174.7444
1bCgUPCzG7pZLBNgJNz6Vg,"Sao Lourenco, Brazil",sao-lourenco-brazil,Brazil,brazil,-23.8033,-46.0209
1beSv0U1wBM3RWOrhzHiKO,"Rod & Gun, California (USA)",rod-gun-california-usa,California (USA),california-usa,37.9455,-122.4822
1BETqEfJw9Hb7DqewbVw2u,"Corsica / Roya, France",corsica-roya-france,France,france,42.6757,9.2851
1bFEH0I4E0IoVFasaDJ3y2,"La Herradura, Chile",la-herradura-chile,Chile,chile,-29.9805,-71.3516
1bFFxEUmSPjKOUGkcguVgu,"Ruegen / Neu Reddevitz, Germany",ruegen-neu-reddevitz-germany,Germany,germany,54.3357,13.6106
1bfHk1JwDSsq3n9qNvJt08,"Buritaca, Colombia",buritaca-colombia,Colombia,colombia,11.2635,-73.7713
1BhmfxIitHdEwurPsxoPRh,"Hohenfelde, Germany",hohenfelde-germany,Germany,germany,54.3876,10.4909
1BHOdYVJJ4briN1deW9pPl,"Kos / Marmari, Greece",kos-marmari-greece,Greece,greece,36.8713,27.1308
1BHzon40vSzmj6fpYxEBPO,"Providenciales / TK Kite Arena, Turks and Caicos Islands",providenciales-tk-kite-arena-turks-and-caicos-islands,Turks and Caicos Islands,turks-and-caicos-islands,21.755,-72.2639
1BJBqtoTCy4M4A16e37vJz,"Wairau Bar, New Zealand",wairau-bar-new-zealand,New Zealand,new-zealand,-41.4964,174.0566
1BjSTsCcLyTMcAarLc4CUK,"Cranfield, Ireland",cranfield-ireland,Ireland,ireland,54.0329,-6.0403
1bmDiHXkEN57t6kN7aGljP,"Mangalia, Romania",mangalia-romania,Romania,romania,43.8115,28.5868
1Bn3yrmEcU1AGL4gUK5Tzt,"Ringkobing Fjord / Bork Havn, Denmark",ringkobing-fjord-bork-havn-denmark,Denmark,denmark,55.8468,8.2771
1bNERhkCItrPrCE3AEpz0R,"Hermosa Beach, California (USA)",hermosa-beach-california-usa,California (USA),california-usa,33.8621,-118.4027
1boYQjz7Z6E49x7kv3Ghst,"Long Reef Beach, Australia",long-reef-beach-australia,Australia,australia,-33.7455,151.3053
1bpsLikNTQVAWR5KunHfrp,"Formentera / Tramuntana, Spain",formentera-tramuntana-spain,Spain,spain,38.6791,1.5126
1BQasqDIY7y7V6Re5tPtlI,"Culdaff, Ireland",culdaff-ireland,Ireland,ireland,55.2943,-7.1508
1bRYFPrrr4nMiPWaEBcgKl,"Foehr / Nieblum, Germany",foehr-nieblum-germany,Germany,germany,54.6806,8.4911
1BsU4Sizycy6WYzCvGpfV6,"Ria Formosa / Fuseta, Portugal",ria-formosa-fuseta-portugal,Portugal,portugal,37.0526,-7.7459
1BVC1lyLMYsBXDgEurI63C,"Paracas Bay, Peru",paracas-bay-peru,Peru,peru,-13.8591,-76.2564
1BVNH4qbHkcAgDBWqr8fn6,"Tampico Beach, Mexico",tampico-beach-mexico,Mexico,mexico,22.2671,-97.7875
1bw3w532tFyKdefB8Q28Cm,"Krk / Punat, Croatia",krk-punat-croatia,Croatia,croatia,45.0316,14.6102
1bXwAAKR2GP856H3Vbu1GJ,"La Bergerie, France",la-bergerie-france,France,france,43.0479,6.1499
1bzY7tZtII96KncNVf4o1o,"Bridlington, England (UK)",bridlington-england-uk,England (UK),england-uk,54.0888,-0.1806
1C26jyuI9V5tuFvxYOQWkr,"Efate / Tapi Point, Vanuatu",efate-tapi-point-vanuatu,Vanuatu,vanuatu,-17.8062,168.3509
1c5HcHwIpvu7s0l2KAOJLO,"Stinson Beach, California (USA)",stinson-beach-california-usa,California (USA),california-usa,37.8977,-122.6428
1c6Fof8RjqUuBR22ROqfDy,"Tahiti / Hiti Mahina Beach, French Polynesia",tahiti-hiti-mahina-beach-french-polynesia,French Polynesia,french-polynesia,-17.4996,-149.48
1C8D9qBpumVSWOtSldQhaX,"Malibu, Vietnam",malibu-vietnam,Vietnam,vietnam,10.9295,108.2957
1cb8Kxrja3iJHtW7HNxdHK,"Gowlane, Ireland",gowlane-ireland,Ireland,ireland,52.2488,-10.0861
1CbJvVVEcKdrPTwjsoISub,"Potomac River / Westmoreland State Park, Virginia (USA)",potomac-river-westmoreland-state-park-virginia-usa,Virginia (USA),virginia-usa,38.173,-76.8768
1cbymmvagqyTJPzmCw2DFW,"Sherwood Island State Park, Connecticut (USA)",sherwood-island-state-park-connecticut-usa,Connecticut (USA),connecticut-usa,41.1116,-73.3286
1CC8tSDCyBUvTzz8NJPriq,"Guarau, Brazil",guarau-brazil,Brazil,brazil,-24.3718,-47.0142
1Ce3pf9IvimWLxqPbEwiXr,"Lido di Latina, Italy",lido-di-latina-italy,Italy,italy,41.4141,12.8444
1cebp4bBBSdDYj2NjEK8Y4,"Costa de Lavos, Portugal",costa-de-lavos-portugal,Portugal,portugal,40.0912,-8.8765
1CG0KPzY1Sp9RDAuH5fVvV,"Columbia River / Beacon Rock, Washington (USA)",columbia-river-beacon-rock-washington-usa,Washington (USA),washington-usa,45.6176,-122.029
1chMSMP5374JZ4wX4wTsRF,"Schweitzerbadet, Sweden",schweitzerbadet-sweden,Sweden,sweden,59.1395,18.3942
1chO7xWDaDA3IpOndSBfOS,"Pampelonne, France",pampelonne-france,France,france,43.2269,6.662
1cKEZGvY4K6JvHgSOLIlHn,"Fifth Avenue Beach, Florida (USA)",fifth-avenue-beach-florida-usa,Florida (USA),florida-usa,28.0919,-80.5654
1ckn54FFh5KxhfWNxNf78b,"Ystad Sandskog, Sweden",ystad-sandskog-sweden,Sweden,sweden,55.4342,13.8819
1ClXmoJlLWJHtVfp3P6sZi,"Vollerwiek, Germany",vollerwiek-germany,Germany,germany,54.2862,8.7497
1cLYfTK8OKtZnKcXYLqMnF,"Lefkada / Aghios Nikolaos, Greece",lefkada-aghios-nikolaos-greece,Greece,greece,38.8776,20.7802
1cnfO78RZZvJMUouCefUcA,"Kircubbin, Ireland",kircubbin-ireland,Ireland,ireland,54.4951,-5.5383
1cOEtXa3wlVb3oU213AmeI,"Ruegen / Gager, Germany",ruegen-gager-germany,Germany,germany,54.3107,13.6813
1COV0ZHlezlYao4rOQ1Sxh,"Maelaren / Loevsta, Sweden",maelaren-loevsta-sweden,Sweden,sweden,59.3891,17.7763
1cPjOMA7z34rou480jNp9D,"Beauvallon, France",beauvallon-france,France,france,43.2871,6.6033
1CPvTmXjIUDUSo9vTE9Mkm,"Tallholmen, Sweden",tallholmen-sweden,Sweden,sweden,56.1828,15.5394
1CQAzeZ0NObL7EvuM6jDXc,"Ogna, Norway",ogna-norway,Norway,norway,58.5337,5.7555
1cQJ1dh2acYsTCxysqAydj,"Mylor, England (UK)",mylor-england-uk,England (UK),england-uk,50.1762,-5.0471
1CQyaXGNlFKqpWa9CDCPaS,"Lake Tanganyika / Croco Beach, Burundi",lake-tanganyika-croco-beach-burundi,Burundi,burundi,-3.5042,29.3405
1CrrmBwfn6Nkj9FFkeWowt,"Usedom / Ueckeritz, Germany",usedom-ueckeritz-germany,Germany,germany,54.0106,14.0388
1CrUaZaO2dBgGKtHXlhN7X,"Ijsselmeer / Hindeloopen, Netherlands",ijsselmeer-hindeloopen-netherlands,Netherlands,netherlands,52.9383,5.4018
1Cus8851PvuAfRI0myiRDq,"La Ribera, Mexico",la-ribera-mexico,Mexico,mexico,23.5906,-109.5479
1cxpRPPqXAG2yKkUVFT2HW,"Raouad Beach, Tunisia",raouad-beach-tunisia,Tunisia,tunisia,36.9309,10.273
1CxrbVdxEgxNK7ZKjBkLRF,"Mopion Island, Saint Vincent and the Grenadines",mopion-island-saint-vincent-and-the-grenadines,Saint Vincent and the Grenadines,saint-vincent-and-the-grenadines,12.5463,-61.3953
1CYMZYHcZTJoEeRucQMtga,"Lake Karakul, Tajikistan",lake-karakul-tajikistan,Tajikistan,tajikistan,39.0386,73.4705
1d3f3EZTSsw4bjU5sqKQ3j,"Overcombe, England (UK)",overcombe-england-uk,England (UK),england-uk,50.6326,-2.4317
1D4Tb03y2UDmMqVPJJ8Odn,"Sardinia / Isola Rossa, Italy",sardinia-isola-rossa-italy,Italy,italy,41.0157,8.8873
5tkddCBe0jLiG8lRfCXu5v,"Sardinia / Isola Rossa, Italy",sardinia-isola-rossa-east-italy,Italy,italy,40.5367,9.815
1d6CUC0fAezHY1sc7whdxB,"Chicxulub, Mexico",chicxulub-mexico,Mexico,mexico,21.3109,-89.531
6NYqeXOVkaL15d7L0N5mhi,"Chicxulub Puerto, Mexico",chicxulub-puerto-mexico,Mexico,mexico,21.2961,-89.6055
1EnzyTivo7lGLKqF0rRlEJ,"Saint Pabu, France",saint-pabu-france,France,france,48.5748,-4.6242
4hS4aVuOO39kJU1IS02Xyc,"Saint-Pabu, Caroual, France",saint-pabu-caroual-france,France,france,48.6085,-2.4978
1D75r7BWaLcdmJykn3KZo3,"Kralova / Kaskady, Slovakia",kralova-kaskady-slovakia,Slovakia,slovakia,48.2089,17.8004
1Dbw5yDDxZYCPfXreomw3d,"Westende, Belgium",westende-belgium,Belgium,belgium,51.165,2.7587
1DdTe92i43EXtyOyas1QBV,"Newcastle, Ireland",newcastle-ireland,Ireland,ireland,54.2141,-5.885
1dfyMpv06u9qeV8VbbWeiZ,"Ruegen / Prora, Germany",ruegen-prora-germany,Germany,germany,54.4431,13.5759
1DGm1HLXtEXzvwQ08eweeP,"Maui / Sugar Cove, Hawaii (USA)",maui-sugar-cove-hawaii-usa,Hawaii (USA),hawaii-usa,20.9095,-156.4101
1dHMlLjLRpIu35bUmyNn8P,"Punta Pozuelo, Puerto Rico",punta-pozuelo-puerto-rico,Puerto Rico,puerto-rico,17.933,-66.1973
1dHwNuqXELM4gD6gViJqDj,"Kilmore Quay, Ireland",kilmore-quay-ireland,Ireland,ireland,52.1781,-6.5964
1DHwOqlGYQczO1wp6yYw7y,"The Warren, Wales (UK)",the-warren-wales-uk,Wales (UK),wales-uk,52.833,-4.4998
1Dj2CVUzYmumxAKFY1jRJw,"Dry Tortugas, Florida (USA)",dry-tortugas-florida-usa,Florida (USA),florida-usa,24.6281,-82.8708
1DKw3Dh1Vj4h8w7Mpkuf5m,"Changi Beach, Singapore",changi-beach-singapore,Singapore,singapore,1.3839,104.0019
1dlfaAhQffqMCXuPzqCCrh,"Marazion, England (UK)",marazion-england-uk,England (UK),england-uk,50.1269,-5.4811
1DlhD7W6pz97wV7ijPVQMt,"Spanish River Park, Florida (USA)",spanish-river-park-florida-usa,Florida (USA),florida-usa,26.3925,-80.0657
1DpRkxU1jYymhmVAmIOSjG,"Portbail, France",portbail-france,France,france,49.326,-1.7057
1DqPuZCluhBakdIz8B7yMC,"Cabarete , Dominica",cabarete-dominica,Dominica,dominica,18.7173,-87.7065
1Dr8DIjasoPrwLAXCnYdSj,"Bodensee / Birnau, Germany",bodensee-birnau-germany,Germany,germany,47.7425,9.221
1DTRe4C2gtY2JBNGWK1Zly,"Nuevo Mazatlan, Mexico",nuevo-mazatlan-mexico,Mexico,mexico,30.7207,-114.7044
1dvRimVRCVZqHQPTotgBo0,"Ljunghusen Parkvaegen, Sweden",ljunghusen-parkvaegen-sweden,Sweden,sweden,55.3887,12.9302
1dWcFZUCFQ3oF4WmqMW4SB,"Ammersee / Herrschinger Kreuz, Germany",ammersee-herrschinger-kreuz-germany,Germany,germany,48.0008,11.15
1dwrjkhdDQ63hGEf12U0Vs,"Paradise Island, Dominican Republic",paradise-island-dominican-republic,Dominican Republic,dominican-republic,19.8701,-71.3055
1DZh2aYgmXvrnivkyha7Fv,"Mon Choisy, Mauritius",mon-choisy-mauritius,Mauritius,mauritius,-20.0099,57.5558
1DzVHzTpaDOseJzfMCc2Dx,"Ocean Trace, Florida (USA)",ocean-trace-florida-usa,Florida (USA),florida-usa,29.8221,-81.2629
1E09nZOeZbw2dVmKYQUyMv,"Columbia River / Willow Grove County Park, Washington (USA)",columbia-river-willow-grove-county-park-washington-usa,Washington (USA),washington-usa,46.1767,-123.0986
1e2P2sYLem3iY0c9HNDb6W,"Sal / Canuha (Calheta Funda), Cape Verde",sal-canuha-calheta-funda-cape-verde,Cape Verde,cape-verde,16.6488,-22.9461
1e3dqEdj328Qs9eWgv9QR3,"Svencele, Lithuania",svencele-lithuania,Lithuania,lithuania,55.4941,21.2449
1E9QZyZt6PDj8YvLsvMIoU,"Area 51, Mexico",area-51-mexico,Mexico,mexico,31.3581,-113.6057
1EBaPEd7ZRyRMzOvBX54Ld,"Caye Caulker, Belize",caye-caulker-belize,Belize,belize,17.7501,-88.0242
1edDSLYkYa1zhrO1pOJRcw,"Union Island / Clifton Harbor, Saint Vincent and the Grenadines",union-island-clifton-harbor-saint-vincent-and-the-grenadines,Saint Vincent and the Grenadines,saint-vincent-and-the-grenadines,12.5987,-61.4121
1eDNNNMpIaik17CNxMAZLD,"Formentera / Playa de Mitjorn, Spain",formentera-playa-de-mitjorn-spain,Spain,spain,38.6771,1.4886
1EDQmfvoYu72ow3aWNekTY,"Great Exuma / Tar Beach, Bahamas",great-exuma-tar-beach-bahamas,Bahamas,bahamas,23.5352,-75.821
1EhvWaMgsCBCRhGk6Qv403,"Mellieha Bay, Malta",mellieha-bay-malta,Malta,malta,35.9693,14.3516
1ei1Hn80VgfYvQnFmKKf6b,"Playa Del Trabucador, Spain",playa-del-trabucador-spain,Spain,spain,40.6289,0.7416
1ewCgIvjDuXGxwLGTZeDiB,"Baleia, Brazil",baleia-brazil,Brazil,brazil,-3.1462,-39.451
6mpU8y6bqbQ3b2MuOiz15K,"Baleia, Brazil",baleia-sao-paolo-brazil,Brazil,brazil,-23.7743,-45.673
1eRfF7HbgtOcw6JuHrIlzr,"Hooksiel, Germany",hooksiel-germany,Germany,germany,53.6456,8.0756
1ETivf0ZZspRS7NrNoTcyX,"San Felipe, Mexico",san-felipe-mexico,Mexico,mexico,21.5684,-88.237
1eW6Mgo69BqQC283WHolgz,"Simstadion, Sweden",simstadion-sweden,Sweden,sweden,56.6599,12.8183
1exYEKpwi1EC2BW1fLKzmx,"Ovahimba Point, Namibia",ovahimba-point-namibia,Namibia,namibia,-18.8331,12.3874
1eywcOlzPjnWTSWwNwGwyF,"Ouano Break, New Caledonia",ouano-break-new-caledonia,New Caledonia,new-caledonia,-21.8654,165.7245
1EYWTkZ7ltXZqxImCBL08N,"Maui / Puukolii Beach, Hawaii (USA)",maui-puukolii-beach-hawaii-usa,Hawaii (USA),hawaii-usa,20.9326,-156.6929
1ezreeiTTP9iAXREWyAfxV,"Corsica / Mucchiatana, France",corsica-mucchiatana-france,France,france,42.5154,9.5329
1ezVqRYvLZuNEW9NvYgMnR,"Chappaquoit, Massachusetts (USA)",chappaquoit-massachusetts-usa,Massachusetts (USA),massachusetts-usa,41.598,-70.6485
1f0L3D7SD9MK7CYk1k58ds,"Half Moon Bay, California (USA)",half-moon-bay-california-usa,California (USA),california-usa,37.4553,-122.4447
1f17wfM9zCP4IBwYrE142j,"De Panne, Belgium",de-panne-belgium,Belgium,belgium,51.1007,2.5808
1F8g3PImzvCdSozibh1jZp,"Roches Noires Private Beach, Mauritius",roches-noires-private-beach-mauritius,Mauritius,mauritius,-20.1047,57.7369
1F91thhRDIaVMr2JTysLKB,"Long Island / Long Beach, New York (USA)",long-island-long-beach-new-york-usa,New York (USA),new-york-usa,40.5827,-73.6514
1f9Ks9doHFgAEEBPHxZaJc,"Lido di Volano, Italy",lido-di-volano-italy,Italy,italy,44.7991,12.2708
1FBqfPEScVi31zVkXhoEj6,"Portstewart Strand, Ireland",portstewart-strand-ireland,Ireland,ireland,55.171,-6.7309
1FBwDd1tp6fMvaWFSGYzlR,"Praia Do Quartel, Brazil",praia-do-quartel-brazil,Brazil,brazil,-7.994296,-34.838028
1fcVoK4OjlIfK3b2N1IMlH,"Playa Lido, Venezuela",playa-lido-venezuela,Venezuela,venezuela,10.2022,-64.6901
1FCZKyO2YxeJ98AjdBw1h2,"Kilmuckridge, Ireland",kilmuckridge-ireland,Ireland,ireland,52.5346,-6.2115
1Ff9uE5fOGb8ZjaSVtC1EB,"The Entrance, Australia",the-entrance-australia,Australia,australia,-33.346,151.5037
1FfmXLwS2O3CW804tQ7b25,"Knysna Lagoon / Leisure Island, South Africa",knysna-lagoon-leisure-island-south-africa,South Africa,south-africa,-34.0661,23.055
1FFqaKTNOozq4Q4l92DuMB,"Cabo Blanqio, Peru",cabo-blanqio-peru,Peru,peru,-4.25899999999999,-81.243
1FGRhzoyW52xPqB9eJR0FI,"Boracay / Lapus-Lapus Beach, Philippines",boracay-lapus-lapus-beach-philippines,Philippines,philippines,11.9822,121.9268
1Fh9ZywBUbVd6OeLNrHHMx,"Canet-Plage South, France",canet-plage-south-france,France,france,42.6693,3.0341
1fHg6VjAZMGgE7NPb9nxoC,"Honshu / Futtsumisaki North, Japan",honshu-futtsumisaki-north-japan,Japan,japan,35.3138,139.7952
1fhyQU4cqn29EMz8UxNGof,"Ilha do Bazaruto / North Point, Mozambique",ilha-do-bazaruto-north-point-mozambique,Mozambique,mozambique,-21.5136,35.4801
1fJEigGroVzG3wAYA1VWpB,"Laguna Mar, Colombia",laguna-mar-colombia,Colombia,colombia,11.0414,-74.9101
1FjR6WAB81WbZBJTpTOxQD,"Epluchures Beach, France",epluchures-beach-france,France,france,43.2497,5.3738
1fJTn49f6FPmgGxrSS8BO9,"Alcan Beach, Canada",alcan-beach-canada,Canada,canada,53.9927,-128.6964
1FLRlEVfgLC0HdyWZFfqZR,"Ruegen / Grahler Faehre, Germany",ruegen-grahler-faehre-germany,Germany,germany,54.3117,13.1528
1fNKViegqv6ZgQwgpN0Pe8,"Walton-on-the-Naze, England (UK)",walton-on-the-naze-england-uk,England (UK),england-uk,51.8555,1.2815
1FNOd4p81qTspEgTSP3fI0,"La Graciosa / Playa Lambra, Canary Islands",la-graciosa-playa-lambra-canary-islands,Canary Islands,canary-islands,29.2821,-13.4977
1fpGfr2mSi0Z8VevOkF3uW,"St. Croix / Judiths Fancy, Virgin Islands (USA)",st-croix-judiths-fancy-virgin-islands-usa,Virgin Islands (USA),virgin-islands-usa,17.7771,-64.7436
1fq5GpdrjlpqhoaZreir3e,"Pohnpei / Main Pass, Micronesia",pohnpei-main-pass-micronesia,Micronesia,micronesia,7.0129,158.2077
1fQKglOiiw74E1mpxH2OK4,"Anegada / Bones Bight, Virgin Islands (British)",anegada-bones-bight-virgin-islands-british,Virgin Islands (British),virgin-islands-british,18.7421,-64.3675
1fQWwCupaVgDQ2NyXaeGfA,"Lake Geneva / La Ligniere, Switzerland",lake-geneva-la-ligniere-switzerland,Switzerland,switzerland,46.425,6.2969
1FuYTzFihYWTvrXCEKDOhe,"Lillatro, Italy",lillatro-italy,Italy,italy,43.3813,10.4325
1fwD3sVqS1VW6oO9pOaQ4j,"Cintsa Bay, South Africa",cintsa-bay-south-africa,South Africa,south-africa,-32.8324,28.1159
1fyQNnMllVYZJEvt3Iw83f,"Ko Tao / Mae Haad Beach, Thailand",ko-tao-mae-haad-beach-thailand,Thailand,thailand,10.0827,99.8232
1fzDZRMrrtgU2Ynj0rGiqw,"Marsdiep, Netherlands",marsdiep-netherlands,Netherlands,netherlands,52.9623,4.731
1G1fSs8hZ0I5D1DlJELser,"Hatteras / First Turnout, North Carolina (USA)",hatteras-first-turnout-north-carolina-usa,North Carolina (USA),north-carolina-usa,35.3733,-75.5
1g2xgbYbmwCeIHlCux6LOC,"Corsica / Propriano, France",corsica-propriano-france,France,france,41.6743,8.8933
1G8I5x2iGRlsXASv32RAB3,"Ai Landini, Italy",ai-landini-italy,Italy,italy,43.8971,8.0803
1G8j6LtGOGWa0Nuss34KQs,"Golden Gardens, Washington (USA)",golden-gardens-washington-usa,Washington (USA),washington-usa,47.6935,-122.406
1gbxfl9t05e41Yx1pV4Xhs,"Bodensee / Berlingen, Switzerland",bodensee-berlingen-switzerland,Switzerland,switzerland,47.675,9.0369
1GciJl6l1oaK065opCi47U,"Tobago Cays, Saint Vincent and the Grenadines",tobago-cays-saint-vincent-and-the-grenadines,Saint Vincent and the Grenadines,saint-vincent-and-the-grenadines,12.6332,-61.3576
1ge67qrc6CSI72Xev2slt6,"Hatteras / Frisco Soundside Turnout, North Carolina (USA)",hatteras-frisco-soundside-turnout-north-carolina-usa,North Carolina (USA),north-carolina-usa,35.2192,-75.6625
1GFQbYu9qzRai7ZCh35c5f,"Neahkahnie Beach, Oregon (USA)",neahkahnie-beach-oregon-usa,Oregon (USA),oregon-usa,45.7354,-123.948
1gGXC4TkeGb7zTTIcjqZWw,"Ahl, Denmark",ahl-denmark,Denmark,denmark,56.1769,10.6396
1ghqTik7VLFlzxjIskXWPg,"North Bimini / Casino Beach, Bahamas",north-bimini-casino-beach-bahamas,Bahamas,bahamas,25.7602,-79.2762
1GIxvCwFlfA4QX6dHB8UPO,"Bjellanstrand, Norway",bjellanstrand-norway,Norway,norway,58.4561,8.8851
1gKzZX54MLmnmyhpro6U0Y,"Little Exuma / The Cut House, Bahamas",little-exuma-the-cut-house-bahamas,Bahamas,bahamas,23.4631,-75.6515
1gmKSkGlCIpkC1h0Nf2917,"Maceio, Brazil",maceio-brazil,Brazil,brazil,-3.1043,-39.519
1gmocEVzJauiD1uCQPAnl1,"Faroe / Farosund, Sweden",faroe-farosund-sweden,Sweden,sweden,57.8701,19.0798
1GmQ6QpRRVRYIyYBelK8GO,"Murlough, Ireland",murlough-ireland,Ireland,ireland,54.2302,-5.8553
1Gnzu3lxugI59WbbCFoV3E,"Sao Conrado, Brazil",sao-conrado-brazil,Brazil,brazil,-22.9994,-43.2584
1GoJGTb1hG8zfFVlz9bJ3c,"Dee Why Beach, Australia",dee-why-beach-australia,Australia,australia,-33.7522,151.2973
1GP8Raq3BeA9DuADz4hqG1,"Lake Michigan / Petoskey State Park, Michigan (USA)",lake-michigan-petoskey-state-park-michigan-usa,Michigan (USA),michigan-usa,45.4059,-84.9125
1gQRc14iKVpyPJcQsQroAf,"Sun Island, Maldives",sun-island-maldives,Maldives,maldives,3.4834,72.8025
1GrT2eRGuGRe62NNUlDadE,"Henderson Point, Mississippi (USA)",henderson-point-mississippi-usa,Mississippi (USA),mississippi-usa,30.3035,-89.2845
1gRzT15zDHgJG6uq9vRgKo,"Pointe aux Outardes, Canada",pointe-aux-outardes-canada,Canada,canada,49.0473,-68.4659
1gz915lG1fyLcbUXNopvTF,"Quercianella, Italy",quercianella-italy,Italy,italy,43.4589999999999,10.3619
1H17pl349iLxRgIpotpyfQ,"Merangang, Brunei",merangang-brunei,Brunei,brunei,5.0377,115.0339
1h5fk6UWigJhB8grtz7d5t,"Lome Beach, Togo",lome-beach-togo,Togo,togo,6.1278,1.2423
9p9sE1peWyDaJ4ZJxRlvz,"Grande, Brazil",grande-florianopolis-brazil,Brazil,brazil,-26.2398,-48.5057
1h9bK28iKKqHCBIjuWCTPl,"Grande, Brazil",grande-rio-de-janeiro-brazil,Brazil,brazil,-22.9573,-42.0607
1HbnZkCFc4xA5KGBTh3MRg,"Saaremaa / Mandjala, Estonia",saaremaa-mandjala-estonia,Estonia,estonia,58.2114,22.3209
1hEX9ZpltDymANQuSUhAnu,"Banana Island, Philippines",banana-island-philippines,Philippines,philippines,11.7709,120.1269
1hGoRxjWAch6Tj6qpibxaj,"Lyme Regis, England (UK)",lyme-regis-england-uk,England (UK),england-uk,50.7229,-2.9368
1hGy5UsDaT85l3SnSkgzwJ,"Ainsdale, England (UK)",ainsdale-england-uk,England (UK),england-uk,53.6078,-3.0631
1HhDdXS5wve0HVofzWItig,"Sciotot, France",sciotot-france,France,france,49.4945,-1.8463
1hIPXPLzNprWSYKwUjAipk,"Jeep Beach, Israel",jeep-beach-israel,Israel,israel,31.938,34.7068
1HIW8gRkBvHLIAe9sMJfcR,"Bramley Beach, New Zealand",bramley-beach-new-zealand,New Zealand,new-zealand,-36.8912,174.8803
1hkpxHO6VbfbR20NZkTC0Q,"Anavissos, Greece",anavissos-greece,Greece,greece,37.7245,23.9415
1HLf8EcCqZddp7nS04Si1S,"Brehec, France",brehec-france,France,france,48.7237,-2.9468
1Hn6CglGtf8qPZp4OU8rgS,"Kos / Mastichari South, Greece",kos-mastichari-south-greece,Greece,greece,36.8472,27.0731
1hpVXxD5t92lIgAsF6iCM7,"Jason Bay, Malaysia",jason-bay-malaysia,Malaysia,malaysia,1.8791,104.107999999999
1hsfryay5KivXzKd71gdtN,"Baltrum, Germany",baltrum-germany,Germany,germany,53.7332,7.3806
1HT5x6D8hTkVMRvXvudTUH,"Lyall Bay, New Zealand",lyall-bay-new-zealand,New Zealand,new-zealand,-41.3316,174.792
1HTxOS1p9wbnPxDz6RsCBj,"Les Generelles, France",les-generelles-france,France,france,46.3403,-1.4394
1huuo3UKE09K66xfWk4UTQ,"Rangiputa, New Zealand",rangiputa-new-zealand,New Zealand,new-zealand,-34.8894,173.3004
1Hvf0gXjneJB7OtV0IDNID,"Brunsnaes, Denmark",brunsnaes-denmark,Denmark,denmark,54.8663,9.6369
1hW2clQxIjBNiH3r6WFfO3,"Le Prat, France",le-prat-france,France,france,48.5978,-2.5369
1hxOgexKPhks0eoEg1guF0,"Foa / Matafonua Lodge Resort, Tonga",foa-matafonua-lodge-resort-tonga,Tonga,tonga,-19.7189,-174.280999999999
1HZblpkyyVtZSvZeczEe3O,"Taraklia Sea, Moldova",taraklia-sea-moldova,Moldova,moldova,45.9488,28.5875
1I3q7oUACU32Fk2KTqG1CV,"Puro, Philippines",puro-philippines,Philippines,philippines,17.6814,120.3656
1I5ZnYK1TvdFd2g63Lb1Pi,"Lake Erie / Conneaut Harbor, Ohio (USA)",lake-erie-conneaut-harbor-ohio-usa,Ohio (USA),ohio-usa,41.9705,-80.5585
1I9BXDsOuI14EAByiNYWsH,"Die Mond, South Africa",die-mond-south-africa,South Africa,south-africa,-34.7104,20.1281
1IbP8DSna2kOFUb2ld6MAa,"Amores, Brazil",amores-brazil,Brazil,brazil,-26.9579,-48.6292
1iDdy5WXjUiqNCft972Pyu,"Sant Marti d'Empuries, Spain",sant-marti-d-empuries-spain,Spain,spain,42.1403,3.1188
1Ie12yz5QZiQDtUq6636E5,"Kent Island / Terrapin Park, Maryland (USA)",kent-island-terrapin-park-maryland-usa,Maryland (USA),maryland-usa,38.9989,-76.323
1iEwCpyeGPqDxueRuzvKhf,"Eagle Lake, California (USA)",eagle-lake-california-usa,California (USA),california-usa,40.6465,-120.7039
1ifhuBemj8T6pHs3l33Od3,"Ninigret, Rhode Island (USA)",ninigret-rhode-island-usa,Rhode Island (USA),rhode-island-usa,41.3439,-71.6898
1IhzzhFlHKExvUDI3DI5oe,"Lake Waccamaw, North Carolina (USA)",lake-waccamaw-north-carolina-usa,North Carolina (USA),north-carolina-usa,34.29,-78.5122
1Iiaue2o3zL2jrXKTJ5olH,"Le Clipon, France",le-clipon-france,France,france,51.0318,2.2064
1Iib2avIUvs5QIJWnbCmKv,"Bozo Beach, Dominican Republic",bozo-beach-dominican-republic,Dominican Republic,dominican-republic,19.753,-70.4136
1iICpq72kobzI4eLxsvyom,"Vermelha do Norte, Brazil",vermelha-do-norte-brazil,Brazil,brazil,-23.4183,-45.0381
1iiGN2uwwzXL5FV7Ywn6Vi,"Umhlanga Rocks, South Africa",umhlanga-rocks-south-africa,South Africa,south-africa,-29.7271,31.0885
1ijGFA4pXzD1sSYonT3ykk,"Kochelsee / Trimini, Germany",kochelsee-trimini-germany,Germany,germany,47.657,11.3549
1iJkxFMrejzBlDnmyUpDXY,"Ringkobing Fjord / Skaven Strand, Denmark",ringkobing-fjord-skaven-strand-denmark,Denmark,denmark,55.8917,8.3562
1IJqwm7Pqd2hUS1kSGs1RA,"Lagoa de Araruama / Arubinha, Brazil",lagoa-de-araruama-arubinha-brazil,Brazil,brazil,-22.8874,-42.2284
1Ik97tQBKwtb2F20vgyTUv,"Koh Samui / Samui Orchid Kitebeach, Thailand",koh-samui-samui-orchid-kitebeach-thailand,Thailand,thailand,9.4307,100.0186
1ImZoYH22C2Pnvv1QWTf4v,"Torre Paola, Italy",torre-paola-italy,Italy,italy,41.2497,13.0359
1iO7x6sk9HkN7flj0pK4kp,"Cabanas de Tavira, Portugal",cabanas-de-tavira-portugal,Portugal,portugal,37.1331,-7.6039
1Ip1cHenOji0ptuRt2Z55j,"Lake Ontario / Southwick Beach, New York (USA)",lake-ontario-southwick-beach-new-york-usa,New York (USA),new-york-usa,43.7632,-76.2154
1iQOhj1rZ9d7nDDa5XSmou,"Rekyva Lake / Sodyba-Durpes, Lithuania",rekyva-lake-sodyba-durpes-lithuania,Lithuania,lithuania,55.8479,23.3187
1ISmkHt8h4IlwO6yQwdlWq,"Tomasitos, Philippines",tomasitos-philippines,Philippines,philippines,9.3037,126.2055
1isNiXTujs8OJQSnKm0NvF,"Lagoa de Araruama / Praia Seca, Brazil",lagoa-de-araruama-praia-seca-brazil,Brazil,brazil,-22.92447598,-42.30048759
1ITkp2POzpsRn5mjsmR04Q,"Taipus de Fora, Brazil",taipus-de-fora-brazil,Brazil,brazil,-13.9317,-38.9301
1IuKmmhMAqUYdTzieWFyOl,"Cozumel / Chen Rio, Mexico",cozumel-chen-rio-mexico,Mexico,mexico,20.3827,-86.8756
1iUmuDxuckosu4lZ3IDg1I,"Bautzener Stausee, Germany",bautzener-stausee-germany,Germany,germany,51.2065,14.465
1iVzAXlAOYvnhH3DOkI9Dx,"Sommarsel, Norway",sommarsel-norway,Norway,norway,68.1694,15.7112
1IXaIRFLpJUvaTlR2mcg96,"Boggoms Bay, South Africa",boggoms-bay-south-africa,South Africa,south-africa,-34.2644,21.9153
1j1RC7gaFtkfbksdcFnYIF,"Ile de Re / Rivedoux, France",ile-de-re-rivedoux-france,France,france,46.1628,-1.2545
1j4UhAQBu5LtlvNJN2n5Wv,"Esterillos Oeste, Costa Rica",esterillos-oeste-costa-rica,Costa Rica,costa-rica,9.527,-84.5012
5xNxDuPNN63LfChgLHM3On,"Noordhoek, South Africa",noordhoek-cape-town-south-africa,South Africa,south-africa,-34.1061,18.3547
1j7TPoetNT6866xZ2ufhEC,"Mar Menor / Playa Paraiso, Spain",mar-menor-playa-paraiso-spain,Spain,spain,37.6335,-0.7306
1J9b8C5OCA8qzdiGY5nQzg,"Liepaja Karaosta, Latvia",liepaja-karaosta-latvia,Latvia,latvia,56.5517,20.9995
1jDkzYF3qeTih6iMmodVSw,"Holnis, Germany",holnis-germany,Germany,germany,54.8595,9.5937
1jF3siwvla6pdCDeZFBxhy,"Marrowstone Island / East Beach, Washington (USA)",marrowstone-island-east-beach-washington-usa,Washington (USA),washington-usa,48.0567,-122.6842
1jfLYOW33tEiqo7yHLzQcZ,"Mayport Poles, Florida (USA)",mayport-poles-florida-usa,Florida (USA),florida-usa,30.3803,-81.3966
1jGcTc9CLc2GySBDrLp8Pu,"Dahmeshoeved, Germany",dahmeshoeved-germany,Germany,germany,54.1974,11.092
1jJvyMejW9Z388VVrR8g6a,"Stone Harbor Inlet, New Jersey (USA)",stone-harbor-inlet-new-jersey-usa,New Jersey (USA),new-jersey-usa,39.0278,-74.7817
1JkXmicd9CbFEKBZjXzw0P,"Datca Ferry Port, Turkey",datca-ferry-port-turkey,Turkey,turkey,36.78225841,27.62869345
1jpqSeUUO3Or0bWiSwOlWT,"Djerba / Houmt Souk, Tunisia",djerba-houmt-souk-tunisia,Tunisia,tunisia,33.8783,10.8797
1JPwNNqP32diNyq5mKCJTD,"Oostende, Belgium",oostende-belgium,Belgium,belgium,51.2276,2.9031
1jsQqlLBx2dk1LOdDxPVvH,"Viti Levu / Navua River Mouth, Fiji Islands",viti-levu-navua-river-mouth-fiji-islands,Fiji Islands,fiji-islands,-18.258,178.1566
1JSshyvheLlNONRJatfl1w,"Brouwersdam, Netherlands",brouwersdam-netherlands,Netherlands,netherlands,51.7631,3.8524
1jT6JukRc2VU6ciaTmrcWE,"My Hoa, Vietnam",my-hoa-vietnam,Vietnam,vietnam,11.6053,109.1468
1jwMhHzjTZpoZwL6efHGbd,"Bonfil, Mexico",bonfil-mexico,Mexico,mexico,16.7462,-99.7615
1JYY6sABab3ecgKZWxOvHH,"Sicily / Capo Feto, Italy",sicily-capo-feto-italy,Italy,italy,37.6635,12.5182
1JZg9hYElv2cTlc7R1raY0,"Isla Margarita / Playa Parguito, Venezuela",isla-margarita-playa-parguito-venezuela,Venezuela,venezuela,11.129,-63.846
1JzxrQ0J6xdamJJMDROO9F,"Washoe Lake / North Boat Ramp, Nevada (USA)",washoe-lake-north-boat-ramp-nevada-usa,Nevada (USA),nevada-usa,39.2759999999999,-119.7935
1K4XiROxgca2Gv4HxwN6RP,"Portland Habour, England (UK)",portland-habour-england-uk,England (UK),england-uk,50.5808,-2.4692
1K6jnewVCw1BLFqIRy5Ij5,"Egmond aan Zee, Netherlands",egmond-aan-zee-netherlands,Netherlands,netherlands,52.6177,4.6193
1K6UsvLH885frPmWSuRune,"Great Exuma / Kitebeach, Bahamas",great-exuma-kitebeach-bahamas,Bahamas,bahamas,23.6711,-75.9793
1k7c1wc1CCTUnxJJR6QNAi,"Playa Preciosa, Dominican Republic",playa-preciosa-dominican-republic,Dominican Republic,dominican-republic,19.6784,-70.0023
1k836Rlm3bqV2XdNlf7jL5,"Mariner Beach, Alaska (USA)",mariner-beach-alaska-usa,Alaska (USA),alaska-usa,59.632,-151.4962
1m3lJLCxmVOvwgw2Kf7OIV,"Noordhoek, Port Elizabeth, South Africa",noordhoek-port-elizabeth-south-africa,South Africa,south-africa,-34.0393,25.6402
1k9xbljb8vrGTf4hUo2jEG,"Marina di Ravenna, Italy",marina-di-ravenna-italy,Italy,italy,44.4858,12.2852
1kCNo6wSGjE1CqcAsz7Dor,"Constantine Bay, England (UK)",constantine-bay-england-uk,England (UK),england-uk,50.5328,-5.0236
1kDK7FiWgc5hu5cY6uTryQ,"Etang de Leucate / Les Dosses, France",etang-de-leucate-les-dosses-france,France,france,42.8383,3.0197
1Kg1Wmr6RclEDHzlvs1Pr5,"Cancun Main Beach, Mexico",cancun-main-beach-mexico,Mexico,mexico,21.0948,-86.7668
1KGJIDEkNhlWWUtytiltTD,"Hel / Hel Camps, Poland",hel-hel-camps-poland,Poland,poland,54.7645,18.4933
1KI2HbuJBQJQUVhHAHIbDb,"Cresmina, Portugal",cresmina-portugal,Portugal,portugal,38.726,-9.4765
1kjJ81Y8gNg3a4GD5r3etn,"South Shields, England (UK)",south-shields-england-uk,England (UK),england-uk,54.9973,-1.4096
1kJzjbL6kZZoWTh2dCEUTb,"Gabella, Italy",gabella-italy,Italy,italy,39.1542,17.1207
1kkjzL674pKUeM8yZ6CJMt,"Stokkoya / Hosensand, Norway",stokkoya-hosensand-norway,Norway,norway,64.0547,9.9507
1kKzPh3U2O62fTwt2GCJYd,"Stora Vaertan / Naesaaeng, Sweden",stora-vaertan-naesaaeng-sweden,Sweden,sweden,59.426,18.1048
1KLF8nRYNOR8i8f0eg4pmO,"Svalbard / Isdammen, Norway",svalbard-isdammen-norway,Norway,norway,78.2113,15.7567
1KN4DTnNFCpNmphyJryWzT,"Laguna Chautengo, Mexico",laguna-chautengo-mexico,Mexico,mexico,16.6201,-99.1014
1KO3J4T4sFAhToGYA8nkpi,"Maui / Pohaku Park, Hawaii (USA)",maui-pohaku-park-hawaii-usa,Hawaii (USA),hawaii-usa,20.9677,-156.6813
1kpkewGeiucqz38ZRzU2eY,"Bahia de Canete, Cuba",bahia-de-canete-cuba,Cuba,cuba,20.613,-74.7295
1KpVCqrkeZoJHhd8YFlWb3,"Lake Lipno / Radslav, Czech Republic",lake-lipno-radslav-czech-republic,Czech Republic,czech-republic,48.714,14.0719
1kQtihGWcPBGvE1a9iDtZx,"Anse la Raie, Mauritius",anse-la-raie-mauritius,Mauritius,mauritius,-19.9912,57.6328
1kU6W7T8vDc0cy82pG4azG,"Sicily / Isola delle Correnti, Italy",sicily-isola-delle-correnti-italy,Italy,italy,36.6485,15.0802
1KUnMsPttI7VDIBYHY4ZUD,"La Linea de la Concepcion, Spain",la-linea-de-la-concepcion-spain,Spain,spain,36.1572,-5.3385
1KV7cIE619HumJDybYyvtz,"Maui / Lanes, Hawaii (USA)",maui-lanes-hawaii-usa,Hawaii (USA),hawaii-usa,20.9313,-156.3634
1KvqfJpo33pNZmYC3w4HGZ,"Ile Flamand, Mauritius",ile-flamand-mauritius,Mauritius,mauritius,-20.3273,57.8142
1KVRQQxaUScBxtUm7IW8I5,"Mulranny, Ireland",mulranny-ireland,Ireland,ireland,53.9019,-9.7763
1KWD9DxMNdZkiy9Wv2h5nD,"Kos / Kohilari, Greece",kos-kohilari-greece,Greece,greece,36.7727,26.9973
1KxGwIV39PrQQulmqUlZra,"Andros / Stafford Creek Beach, Bahamas",andros-stafford-creek-beach-bahamas,Bahamas,bahamas,24.9802,-77.9381
1kzsQRWTJ0KVZWMrBaGZfK,"Bonza Bay, South Africa",bonza-bay-south-africa,South Africa,south-africa,-32.9748,27.9647
1L0tr90wQGJoaOhet8oKDw,"Lake Winnipeg / Willow Island, Canada",lake-winnipeg-willow-island-canada,Canada,canada,50.6078,-96.9643
1l0VzGuXxY9oUlTVWcggph,"Sechura, Peru",sechura-peru,Peru,peru,-5.5928,-80.8661
1l3dfPepL7fMCZ26NlzaqQ,"TK Beach, Turkey",tk-beach-turkey,Turkey,turkey,38.333,26.6518
1L3sUee76QPootL50uPWz3,"Bahia Honda Key / State Park, Florida (USA)",bahia-honda-key-state-park-florida-usa,Florida (USA),florida-usa,24.6646,-81.2545
1l83meUEASjiq0cEhx4VX3,"Barra do Trairi, Brazil",barra-do-trairi-brazil,Brazil,brazil,-3.2922,-39.1888
1L8mLGOYTZdVNjUe5YHFnh,"Vejbystrand, Sweden",vejbystrand-sweden,Sweden,sweden,56.3132,12.7631
1LAkWSQ8ulleILs8sWmFvS,"Rozkos / Sejki Beach, Czech Republic",rozkos-sejki-beach-czech-republic,Czech Republic,czech-republic,50.3672,16.0523
1LbDVbD86w6FmIPcwrWGOE,"Kitesurfing Guimaras, Philippines",kitesurfing-guimaras-philippines,Philippines,philippines,10.6428,122.7233
1LBPKWkotpVwkahfGrlYI9,"Tobago / Pigeon Point, Trinidad and Tobago",tobago-pigeon-point-trinidad-and-tobago,Trinidad and Tobago,trinidad-and-tobago,11.1733,-60.8382
1LcTWSlcuHUcq49W9SUig7,"Metallurg Base, Russia",metallurg-base-russia,Russia,russia,51.3914,37.8019
1ldblmGwh0bWj9vTVcNKQ8,"Columbia River / Marine Drive, Oregon (USA)",columbia-river-marine-drive-oregon-usa,Oregon (USA),oregon-usa,45.6008,-122.6169
1ldpijn0DHWaRu4lEWp4CF,"Elbow Cay / Hope Town, Bahamas",elbow-cay-hope-town-bahamas,Bahamas,bahamas,26.541,-76.9576
1LFPS2ylpFOPafVvgG6vPG,"Great Exuma / Rolleville, Bahamas",great-exuma-rolleville-bahamas,Bahamas,bahamas,23.6755,-75.9825
1Lg79UbLbhUM1VXJePv4IO,"Praia de Itaparica, Brazil",praia-de-itaparica-brazil,Brazil,brazil,-20.3721,-40.3029
1lh2NFrmr0yDzfIgOJCWNd,"Bocagrande, Colombia",bocagrande-colombia,Colombia,colombia,10.4019,-75.5582
1lhPJosivujMCeoTSX2zGt,"Liznjan, Croatia",liznjan-croatia,Croatia,croatia,44.8238,13.981
1ljEABM5C391ySB6t9mj2X,"San Salvador / Snow Bay, Bahamas",san-salvador-snow-bay-bahamas,Bahamas,bahamas,23.9575,-74.4887
1Lnc9KuilySxAM8YHNMQPT,"Varadero Kawama, Cuba",varadero-kawama-cuba,Cuba,cuba,23.1357,-81.2893
1lnCSyTM8KrTfWZ3H0A3cb,"Luederitz, Namibia",luederitz-namibia,Namibia,namibia,-26.658,15.1523
1LNGiVRYwNd3KyUpkyq4LF,"Sardinia / Capo Ferrato, Italy",sardinia-capo-ferrato-italy,Italy,italy,39.2947,9.6076
1Lqit7scXyYazf6Ie3u68l,"Sao Vicente / Sandy Beach, Cape Verde",sao-vicente-sandy-beach-cape-verde,Cape Verde,cape-verde,16.8607,-24.875
1luVmPOOeBGWgqOEQsJHru,"West Dennis Beach, Massachusetts (USA)",west-dennis-beach-massachusetts-usa,Massachusetts (USA),massachusetts-usa,41.6489,-70.1939
1lWkoyUU2hYsWpWadL0X1q,"Rhodos / Kremasti, Greece",rhodos-kremasti-greece,Greece,greece,36.4196,28.1252
1lX7E3M6KtNJYkcPTRHT1t,"Sardinia / Coequaddus, Italy",sardinia-coequaddus-italy,Italy,italy,38.9822,8.4436
1lXdjmoanqeRiaombOjNq1,"Pak Nang Tak, Thailand",pak-nang-tak-thailand,Thailand,thailand,10.5211,99.2372
1lYvyCk4IjzGcqzjK84mvi,"North Caicos / Parrot Cay, Turks and Caicos Islands",north-caicos-parrot-cay-turks-and-caicos-islands,Turks and Caicos Islands,turks-and-caicos-islands,21.9362,-72.0558
1LyyU6jybTiCXgxIbpWAji,"Als / Drejet Lillehav, Denmark",als-drejet-lillehav-denmark,Denmark,denmark,54.855556,9.992097
1m0ToYL3TqsH2JDsBzSnGc,"Mida Creek, Kenya",mida-creek-kenya,Kenya,kenya,-3.3806,39.9717
1m2NoSvtWre1dqjX3iVb6R,"San Andres Island / Chameys Nautica, Colombia",san-andres-island-chameys-nautica-colombia,Colombia,colombia,12.5545,-81.7038
1m3KKFiGd2i2R5BW3RqipD,"Lido di Classe, Italy",lido-di-classe-italy,Italy,italy,44.3424,12.3312
1m5L0SEllXQlLPy0l18TDs,"Likuri Island, Fiji Islands",likuri-island-fiji-islands,Fiji Islands,fiji-islands,-18.2873,177.2873
1m6ePbnItEOQDu7NGu9SFD,"Flour Bluff, Texas (USA)",flour-bluff-texas-usa,Texas (USA),texas-usa,27.6111,-97.2959
1M6JArWICoXadSDJbXgwf9,"Columbia River / Rufus, Oregon (USA)",columbia-river-rufus-oregon-usa,Oregon (USA),oregon-usa,45.693,-120.7547
1m7QBFb4GOdBjFLiwdl92Q,"Laje da Rasa, Brazil",laje-da-rasa-brazil,Brazil,brazil,-22.7464,-41.9417
1m8Fnq56jFMHn5I3Dzkyb3,"Westkapelle, Netherlands",westkapelle-netherlands,Netherlands,netherlands,51.525,3.4392
1mc5wKhHaJ6i0lknmVLdhO,"Hudson River / Senasqua Park, New York (USA)",hudson-river-senasqua-park-new-york-usa,New York (USA),new-york-usa,41.2032,-73.8915
1mCy9fSc9tFC5jj00yhUF0,"Socotra Island / Irsal, Yemen",socotra-island-irsal-yemen,Yemen,yemen,12.5557,54.5094
1MeoLKWzBW46TIgsEhqS2k,"Grande Anse, Guadeloupe",grande-anse-guadeloupe,Guadeloupe,guadeloupe,15.9608,-61.671
1MGJe9FthpSccy3sQOQTFv,"Puerto Beach, Philippines",puerto-beach-philippines,Philippines,philippines,17.64642468,120.3590119
1mhldjeggfFovCMeDC1upi,"Sestri Levante, Italy",sestri-levante-italy,Italy,italy,44.278,9.3924
1MIDUUk4h0WG6n9ZalyznO,"Montalivet, France",montalivet-france,France,france,45.3812,-1.1597
1miUFfqf6iNHGx9HIlhT1D,"Bassin d'Arcachon / Arbousiers, France",bassin-d-arcachon-arbousiers-france,France,france,44.6459,-1.2004
1mj3mKw8ETBSXz5Ysvm8oA,"Haakgat, South Africa",haakgat-south-africa,South Africa,south-africa,-33.747,18.4408
1MJCy6dpgtAGjys3XBUjN8,"Sainte Cecile, France",sainte-cecile-france,France,france,50.576,1.5765
1mpZMWaCScaiuqW4lpQiDP,"9 Beach, Israel",9-beach-israel,Israel,israel,32.1764,34.8013
1MqLtPhRlec1POj7lYIxg3,"Cozumel / Country Club, Mexico",cozumel-country-club-mexico,Mexico,mexico,20.5537,-86.922
1MtCsPbs1hoLF9Ww063wRG,"Ilha Fernando de Noronha / Conceicao, Brazil",ilha-fernando-de-noronha-conceicao-brazil,Brazil,brazil,-3.8419,-32.4186
1MW4stdgNJiJTc7p1Z3bkR,"Groenwohldt, Germany",groenwohldt-germany,Germany,germany,54.4752,10.0287
1Mx3F71Ffgkwq9sikCp83W,"Ifafa Beach, South Africa",ifafa-beach-south-africa,South Africa,south-africa,-30.4562,30.6535
1MyuvimhZ9DAEHBNkJs9bH,"Arcadia Beach, Oregon (USA)",arcadia-beach-oregon-usa,Oregon (USA),oregon-usa,45.8464,-123.9611
1mYWzVLdZo2T9kgpfru0EZ,"Mustang Island / J P Luby Park, Texas (USA)",mustang-island-j-p-luby-park-texas-usa,Texas (USA),texas-usa,27.6166,-97.2021
1myXdHGx9jMCIrxj1TqJ4o,"Atlantida, Brazil",atlantida-brazil,Brazil,brazil,-29.7826,-50.0238
1n3M2TD9Gxd1CLJ7ZuMRQ8,"Naxos / Azalas, Greece",naxos-azalas-greece,Greece,greece,37.0869,25.5924
1n4vNMslIyTIrXfKOhF4sb,"Le Gorette, Italy",le-gorette-italy,Italy,italy,43.3274,10.4564
1n6PtR9DDUpH2GN2ztt6hQ,"Qi Kiteboarding, Philippines",qi-kiteboarding-philippines,Philippines,philippines,11.3159,119.5576
1n6uwRMcf1hqbgmjGlcKqQ,"Bonaire / Red Slave, Netherlands Antilles",bonaire-red-slave-netherlands-antilles,Netherlands Antilles,netherlands-antilles,12.026,-68.2509
1n7YKUASRAegi2EWiYdLD6,"Agger Lake, Denmark",agger-lake-denmark,Denmark,denmark,56.7973,8.2594
1n8Mbq48MgxZd3Z09krlg4,"Lake Michigan / Sheridan Beach, Indiana (USA)",lake-michigan-sheridan-beach-indiana-usa,Indiana (USA),indiana-usa,41.7338,-86.8865
1n91VxYazJaszRgNFJ5BVV,"Peloponnese / Nafplio, Greece",peloponnese-nafplio-greece,Greece,greece,37.5802,22.7961
1NAOQ8eXlv7BxBTx3W8K8c,"Stent Road, New Zealand",stent-road-new-zealand,New Zealand,new-zealand,-39.2276,173.775
1NB92yIQiaqOyg7oity185,"Huguenot Memorial Park, Florida (USA)",huguenot-memorial-park-florida-usa,Florida (USA),florida-usa,30.4071,-81.4045
1nbbaKhBirFKTN3pJaVVcB,"Whidbey Island / Keystone, Washington (USA)",whidbey-island-keystone-washington-usa,Washington (USA),washington-usa,48.1613,-122.6606
1NBNrfx7GMlCnZW1NgECDG,"Lohusalu, Estonia",lohusalu-estonia,Estonia,estonia,59.3957,24.2107
1NdBlSfKv5ettkXAT5h8to,"Puerto Colombia, Colombia",puerto-colombia-colombia,Colombia,colombia,10.9867,-74.9629
1NeNTmZp3WzbFKlgD3RBXw,"Sardinia / La Caletta, Italy",sardinia-la-caletta-italy,Italy,italy,40.5914,9.7584
1NfAwEuZ34n28dOMxT8bTE,"Largs, Scotland (UK)",largs-scotland-uk,Scotland (UK),scotland-uk,55.7878,-4.8664
1NfRLe48VGo4ZDsuLvEEt2,"Agate Beach, Oregon (USA)",agate-beach-oregon-usa,Oregon (USA),oregon-usa,44.6591,-124.0584
1nGHanT7nshwMjMbuxvFyi,"Hatteras / Kite Point, North Carolina (USA)",hatteras-kite-point-north-carolina-usa,North Carolina (USA),north-carolina-usa,35.2931,-75.5165
1nIYNUSDtgctGYeuDDwkPO,"Old Hunstanton, England (UK)",old-hunstanton-england-uk,England (UK),england-uk,52.9519,0.4949
1Njj9f8LmwtFm4vQm8RAER,"Winterton-on-Sea, England (UK)",winterton-on-sea-england-uk,England (UK),england-uk,52.7182,1.7004
1NLelXeKglHkFzrWfgBxnu,"Poste Lafayette, Mauritius",poste-lafayette-mauritius,Mauritius,mauritius,-20.1283,57.7562
1NLpF7OI6I4c3apN6eGVmq,"Sawa Island, Indonesia",sawa-island-indonesia,Indonesia,indonesia,-5.7879,123.8679
1NluxaoPAG2FPYct5dxpAu,"Coverack, England (UK)",coverack-england-uk,England (UK),england-uk,50.0256,-5.0969
1Nman7ecLdKJInVrhXrz5q,"Isla Blanca / Ikarus Kite Camp, Mexico",isla-blanca-ikarus-kite-camp-mexico,Mexico,mexico,21.3227,-86.8081
1nN36Cf5ggLDjpZBKz14hI,"East Wittering, England (UK)",east-wittering-england-uk,England (UK),england-uk,50.7656,-0.8758
1NpDAjJns4i1NXhpVv8kMh,"Stagnone Kitesurf, Italy",stagnone-kitesurf-italy,Italy,italy,37.8958,12.4667
1NQwVgFtYADyFvJYOzD1ub,"Cerf Island and Long Island, Seychelles",cerf-island-and-long-island-seychelles,Seychelles,seychelles,-4.6289,55.5048
1NRDXOZ0UWVwurDVOA9vaW,"Cannon Lake, Minnesota (USA)",cannon-lake-minnesota-usa,Minnesota (USA),minnesota-usa,44.2596,-93.3445
1nRylGmIabo8JwiOgMC9gS,"Saint-Pierre-Sur-Mer, France",saint-pierre-sur-mer-france,France,france,43.1868,3.2029
1nwi5jC9Nq1vkBvb1e5g06,"Imperial Beach, California (USA)",imperial-beach-california-usa,California (USA),california-usa,32.5768,-117.1329
1nxsci15aEpIMPvO8ARRCh,"Gearhart, Oregon (USA)",gearhart-oregon-usa,Oregon (USA),oregon-usa,46.031,-123.9295
1nxuCdyLDkS2UbSIKYuiFe,"Gotland / Furillen, Sweden",gotland-furillen-sweden,Sweden,sweden,57.7616,19.0037
1nZ0tHrXknYU9LXC182wBD,"Tiree / The Loch, Scotland (UK)",tiree-the-loch-scotland-uk,Scotland (UK),scotland-uk,56.5173,-6.9246
1o1Tnc6Q3dim3XrWoeMIiw,"Ras Sudr, Egypt",ras-sudr-egypt,Egypt,egypt,29.4498,32.7501
1O1xVDxLledV8VyaEoM9eI,"Amanpulo Island, Philippines",amanpulo-island-philippines,Philippines,philippines,11.3537,120.7316
1o54BWxYS74RvvCK00QqOz,"Raivavae Motu HaHa, French Polynesia",raivavae-motu-haha-french-polynesia,French Polynesia,french-polynesia,-23.8768,-147.6191
1o8URQQiVgWLWVYJnPaFRz,"Amstelmeer / Lutjesstrand Kitebeach, Netherlands",amstelmeer-lutjesstrand-kitebeach-netherlands,Netherlands,netherlands,52.8854,4.9166
1ocPGyhYfXCpsMqKUyThVb,"Necker Island, Virgin Islands (British)",necker-island-virgin-islands-british,Virgin Islands (British),virgin-islands-british,18.5273,-64.3582
1OdWfZv67MYZXJ0s4QGPV0,"Dog Island, Florida (USA)",dog-island-florida-usa,Florida (USA),florida-usa,29.7989,-84.5999
1OeOuaoOcr6yQzvbS473ub,"La Passe aux Moutons, France",la-passe-aux-moutons-france,France,france,48.6779,-3.9248
1OGVJhkQFOLN0xzfu3OEnU,"Lake Waubesa / Lake Farm County Park, Wisconsin (USA)",lake-waubesa-lake-farm-county-park-wisconsin-usa,Wisconsin (USA),wisconsin-usa,43.0263,-89.3288
1oHsCykWYmKplCHi5D6vof,"Trezmeur, France",trezmeur-france,France,france,48.7666,-3.5807
1OKjgMfyZJKsjmXx7LlQum,"Phuket / Karon Beach, Thailand",phuket-karon-beach-thailand,Thailand,thailand,7.8442,98.2933
1OkWE1gx7Hlh0HXKXUatPp,"Rio Mar Beach, Puerto Rico",rio-mar-beach-puerto-rico,Puerto Rico,puerto-rico,18.394,-65.7605
1OkWtRQmlFcjHRbUn69eIW,"Peroba, Brazil",peroba-brazil,Brazil,brazil,-8.9352,-35.1672
1OKYQUN36LZ05aRXe5xhGK,"Maui / Tavares Bay, Hawaii (USA)",maui-tavares-bay-hawaii-usa,Hawaii (USA),hawaii-usa,20.9294,-156.3679
1OLVjoqoxDPw1s9AARBmuW,"Lake Elwell, Montana (USA)",lake-elwell-montana-usa,Montana (USA),montana-usa,48.3173,-111.1367
1OmneWwMq4Mt0XIFX7i8uu,"Tenerife / Muelle, Canary Islands",tenerife-muelle-canary-islands,Canary Islands,canary-islands,28.0425,-16.5344
1OOlkYG0rfn1nu5UIMCsEd,"Penthievre, France",penthievre-france,France,france,47.5463,-3.1345
1oOuZGpxXWglo431Teujck,"Alligator Reef Light, Florida (USA)",alligator-reef-light-florida-usa,Florida (USA),florida-usa,24.8517,-80.6184
1OpUxbbyeqJe0EUxRRlgub,"Plage de es Chaffar, Tunisia",plage-de-es-chaffar-tunisia,Tunisia,tunisia,34.5363,10.5887
1oTFm2ZjuhNuRqb1BRL0bX,"Sjaelland / Rageleje, Denmark",sjaelland-rageleje-denmark,Denmark,denmark,56.0987,12.1592
1OtoXbsvlu7Jw36noGspNK,"Corsica / Plage de Padulone, France",corsica-plage-de-padulone-france,France,france,42.1092,9.5506
1OUn7RgmXa43kuEucgb48T,"La Charca, Spain",la-charca-spain,Spain,spain,43.5666,-7.2469
1OvRhAwdyxaCmoEokjBkXv,"Callantsoog, Netherlands",callantsoog-netherlands,Netherlands,netherlands,52.8384,4.6912
1OWia6LRf9GPUyxzsh0a2e,"Miami Beach / 25th and north of 30th, Florida (USA)",miami-beach-25th-and-north-of-30th-florida-usa,Florida (USA),florida-usa,25.7977,-80.1257
1Oy9HE5mFe8KmNNOVIlCRJ,"Lake St. Clair / Harsens Island, Michigan (USA)",lake-st-clair-harsens-island-michigan-usa,Michigan (USA),michigan-usa,42.5493,-82.6596
1OZokIfpcoZVBg5c6IbO2W,"Spiaggia Pizzomunno, Italy",spiaggia-pizzomunno-italy,Italy,italy,41.8738,16.176
1p1N4u4R6FIgvGix2dDcRe,"Menorca / Sant Tomas, Spain",menorca-sant-tomas-spain,Spain,spain,39.9144,4.0401
1p84TNL0z3Mzi18BFIX3ce,"Ameland / Nes Noordzee, Netherlands",ameland-nes-noordzee-netherlands,Netherlands,netherlands,53.4598,5.7783
1p8ZCQgma5jUesy9IBVVct,"Camsur Watersports Complex, Philippines",camsur-watersports-complex-philippines,Philippines,philippines,13.5957,123.2672
1p9T2X9cyB4ZaPZEsZBNsg,"Koh Lanta, Thailand",koh-lanta-thailand,Thailand,thailand,7.6485,99.0335
1PagL3J1CXUCO0xOpGyLDz,"Bodensee / Hagnau, Germany",bodensee-hagnau-germany,Germany,germany,47.671,9.3273
1PaIcRE5dTq6bssjMc1BA8,"Jaguaribe, Brazil",jaguaribe-brazil,Brazil,brazil,-12.9572,-38.3891
1PbjqgaXblvdqrBLk8aoFv,"Skerries North, Ireland",skerries-north-ireland,Ireland,ireland,53.5818,-6.1104
1PcosP4d0Cak36W5qdLTBd,"Ijsselmeer / Medemblik, Netherlands",ijsselmeer-medemblik-netherlands,Netherlands,netherlands,52.7553,5.1239
1PdKnSAzWIEgn9goTKmoRN,"Sundays River, South Africa",sundays-river-south-africa,South Africa,south-africa,-33.721,25.8532
1Pdt1HsxiOyden4uabzY0J,"Sao Vicente / Salamansa, Cape Verde",sao-vicente-salamansa-cape-verde,Cape Verde,cape-verde,16.9055,-24.9442
1pf5TdABXNb4xooWWIX0kI,"Pompeia, Brazil",pompeia-brazil,Brazil,brazil,-20.3579,-40.2906
1pGka1OSyyyFfkA0iLU3Ot,"Raekula, Estonia",raekula-estonia,Estonia,estonia,58.3447,24.5582
1pgNxeXgOPJ72suxk8YWE7,"Pago Bay, Guam",pago-bay-guam,Guam,guam,13.4241,144.7858
1pHNv51tlm3bsBSOkt51f1,"Cabedelo de Viana, Portugal",cabedelo-de-viana-portugal,Portugal,portugal,41.6781,-8.8308
1PKkFwtlFydzLcVyIIrZxp,"Renesse West, Netherlands",renesse-west-netherlands,Netherlands,netherlands,51.727,3.7
1pkxvmMe6xX5B18riBIyfg,"Saline, Guadeloupe",saline-guadeloupe,Guadeloupe,guadeloupe,16.2056,-61.4428
1pLInRK76pxNftF4WPK7lH,"Whitford Creek, New Zealand",whitford-creek-new-zealand,New Zealand,new-zealand,-36.9343,174.9694
1pMiB3CIcOhqLNlJ5VcTIy,"Long Island / Lido Beach Oceanside, New York (USA)",long-island-lido-beach-oceanside-new-york-usa,New York (USA),new-york-usa,40.5849,-73.6292
1PP46KkTBDiLnxd4TVS159,"Flat Rocks, South Africa",flat-rocks-south-africa,South Africa,south-africa,-33.9963,25.6826
1PPJzq1s3PxOLDikG2P9cz,"Corsica / Plage Urbino, France",corsica-plage-urbino-france,France,france,42.0347,9.4854
1PPNOD5KyVj8OIAU3KBubQ,"Praia Grande de Pera, Portugal",praia-grande-de-pera-portugal,Portugal,portugal,37.0978,-8.3494
1pPsecqbtZoxOHkGEAH0Xs,"Capao da Canoa, Brazil",capao-da-canoa-brazil,Brazil,brazil,-29.7568,-50.0105
1pQxaQ3NLhLnbrAguXDdq5,"Lake Mohave / Katherine's Landing, Arizona (USA)",lake-mohave-katherine-s-landing-arizona-usa,Arizona (USA),arizona-usa,35.2203,-114.5705
1prCXcXaXAlgzaIab7vfkI,"Skyway Bridge South Rest Area, Florida (USA)",skyway-bridge-south-rest-area-florida-usa,Florida (USA),florida-usa,27.5847,-82.6134
1PRWGpAEFkLpJ4RHye1OrS,"Virginia Beach 45th Street, Virginia (USA)",virginia-beach-45th-street-virginia-usa,Virginia (USA),virginia-usa,36.8731,-75.9807
1PSfKHty4BGL9sFkTiXkWY,"Lake Belton, Texas (USA)",lake-belton-texas-usa,Texas (USA),texas-usa,31.13274719,-97.5004021
1PT4KgKl3EwoaII3lVz9P6,"Smerwick, Ireland",smerwick-ireland,Ireland,ireland,52.1812,-10.4077
